[{
	"name": "Proudest Monkey",
	"streetAddress": "108 S Main St",
	"city": "Bryan",
	"state": "TX",
	"zip": "77803",
	"rating": "4.0",
	"reviews": "80",
	"price": 1,
	"type": "American (Traditional), Sports Bars, Gastropubs",
	"lat": "30.6732969917929",
	"lon": "-96.3737925380475"
}, {
	"name": "Christopher’s World Grille",
	"streetAddress": "5001 Booneville Rd",
	"city": "Bryan",
	"state": "TX",
	"zip": "77802",
	"rating": "4.5",
	"reviews": "126",
	"price": 3,
	"type": "Seafood, Steakhouses, American (New)",
	"lat": "30.6602048349061",
	"lon": "-96.2957799257602"
}, {
	"name": "Madden’s Casual Gourmet",
	"streetAddress": "202 S Bryan Ave",
	"city": "Bryan",
	"state": "TX",
	"zip": "77803",
	"rating": "4.5",
	"reviews": "118",
	"price": 2,
	"type": "American (Traditional), Food",
	"lat": "30.6725707853338",
	"lon": "-96.3746484743558"
}, {
	"name": "Fargo’s Pit BBQ",
	"streetAddress": "720 N Texas Ave",
	"city": "Bryan",
	"state": "TX",
	"zip": "77803",
	"rating": "4.5",
	"reviews": "122",
	"price": 1,
	"type": "Barbeque, Soul Food",
	"lat": "30.6795220124865",
	"lon": "-96.3696529963652"
}, {
	"name": "Taqueria El Tio",
	"streetAddress": "911 N Bryan Ave",
	"city": "Bryan",
	"state": "TX",
	"zip": "77803",
	"rating": "4.5",
	"reviews": "24",
	"price": 1,
	"type": "Mexican",
	"lat": "30.6822389512469",
	"lon": "-96.3723257134193"
}, {
	"name": "La Carreta Mexican Grill",
	"streetAddress": "1605 San Jacinto Ln",
	"city": "Bryan",
	"state": "TX",
	"zip": "77803",
	"rating": "5.0",
	"reviews": "22",
	"price": 1,
	"type": "Mexican, Breakfast & Brunch",
	"lat": "30.6870704734476",
	"lon": "-96.3737394350761"
}, {
	"name": "Jesse’s Taqueria & Bakery",
	"streetAddress": "3310-A E 29th St",
	"city": "Bryan",
	"state": "TX",
	"zip": "77802",
	"rating": "4.5",
	"reviews": "48",
	"price": 1,
	"type": "Tex-Mex, Breakfast & Brunch",
	"lat": "30.6556956376589",
	"lon": "-96.3380763170737"
}, {
	"name": "Burger House",
	"streetAddress": "3310 S College Ave",
	"city": "Bryan",
	"state": "TX",
	"zip": "77801",
	"rating": "4.5",
	"reviews": "48",
	"price": 1,
	"type": "Burgers",
	"lat": "30.6378125209413",
	"lon": "-96.3572634569496"
}, {
	"name": "Kluay Kluay Thai Restaurant",
	"streetAddress": "3203 Freedom Blvd",
	"city": "Bryan",
	"state": "TX",
	"zip": "77802",
	"rating": "4.5",
	"reviews": "67",
	"price": 2,
	"type": "Thai",
	"lat": "30.659813209854",
	"lon": "-96.3293424687064"
}, {
	"name": "The Village",
	"streetAddress": "210 W 26th St",
	"city": "Bryan",
	"state": "TX",
	"zip": "77803",
	"rating": "4.0",
	"reviews": "113",
	"price": 2,
	"type": "Breakfast & Brunch, Sandwiches, Coffee & Tea",
	"lat": "30.6741111024283",
	"lon": "-96.3744958022077"
}, {
	"name": "Shannon’s Cafe",
	"streetAddress": "601 San Jacinto Ln",
	"city": "Bryan",
	"state": "TX",
	"zip": "77803",
	"rating": "4.5",
	"reviews": "23",
	"price": 1,
	"type": "American (New), Soul Food",
	"lat": "30.6801407646136",
	"lon": "-96.3851810552669"
}, {
	"name": "Bavarian Brauhaus",
	"streetAddress": "109 N Main St",
	"city": "Bryan",
	"state": "TX",
	"zip": "77803",
	"rating": "4.0",
	"reviews": "29",
	"price": 2,
	"type": "German, Pubs",
	"lat": "30.6741060970731",
	"lon": "-96.3729022459539"
}, {
	"name": "Butler’s Soul FoodFood",
	"streetAddress": "1416 Groesbeck",
	"city": "Bryan",
	"state": "TX",
	"zip": "77803",
	"rating": "4.5",
	"reviews": "11",
	"price": 1,
	"type": "American (Traditional), Soul Food, Burgers",
	"lat": "30.6606576416961",
	"lon": "-96.3779902920318"
}, {
	"name": "La Unión Tienda y Restaurante",
	"streetAddress": "2305 Cavitt Ave",
	"city": "Bryan",
	"state": "TX",
	"zip": "77801",
	"rating": "4.5",
	"reviews": "17",
	"price": 1,
	"type": "Salvadoran",
	"lat": "30.6481905941352",
	"lon": "-96.3613961039479"
}, {
	"name": "Zand’s Persian Kebabs",
	"streetAddress": "3105 S Texas Ave",
	"city": "Bryan",
	"state": "TX",
	"zip": "77802",
	"rating": "4.5",
	"reviews": "71",
	"price": 1,
	"type": "Persian/Iranian, Mediterranean, Middle Eastern",
	"lat": "30.6436416369567",
	"lon": "-96.3533378292398"
}, {
	"name": "Sugba",
	"streetAddress": "3737 E 29th St",
	"city": "Bryan",
	"state": "TX",
	"zip": "77802",
	"rating": "5.0",
	"reviews": "6",
	"price": 1,
	"type": "Food Trucks, Filipino",
	"lat": "30.6486770870217",
	"lon": "-96.3341859479011"
}, {
	"name": "Swamp Tails",
	"streetAddress": "4353 Wellborn Rd",
	"city": "Bryan",
	"state": "TX",
	"zip": "77801",
	"rating": "4.0",
	"reviews": "44",
	"price": 2,
	"type": "Cajun/Creole, Seafood",
	"lat": "30.6216534032445",
	"lon": "-96.3535707069278"
}, {
	"name": "El Sol De Mexico",
	"streetAddress": "705 N Texas Ave",
	"city": "Bryan",
	"state": "TX",
	"zip": "77803",
	"rating": "4.0",
	"reviews": "38",
	"price": 1,
	"type": "Mexican",
	"lat": "30.6794501846399",
	"lon": "-96.3689524134012"
}, {
	"name": "Raspas El Payasito",
	"streetAddress": "1005 S Coulter Ave",
	"city": "Bryan",
	"state": "TX",
	"zip": "77803",
	"rating": "4.0",
	"reviews": "28",
	"price": 1,
	"type": "Mexican, Food Trucks",
	"lat": "30.6595643606569",
	"lon": "-96.3676357630887"
}, {
	"name": "Feed Barn",
	"streetAddress": "2017 Fountain Ave",
	"city": "Bryan",
	"state": "TX",
	"zip": "77801",
	"rating": "4.0",
	"reviews": "18",
	"price": 1,
	"type": "American (New)",
	"lat": "30.6492754080621",
	"lon": "-96.3753841407451"
}, {
	"name": "Shipwreck Grill",
	"streetAddress": "206 E Villa Maria",
	"city": "Bryan",
	"state": "TX",
	"zip": "77801",
	"rating": "3.5",
	"reviews": "54",
	"price": 2,
	"type": "Seafood, Cajun/Creole",
	"lat": "30.6408712015688",
	"lon": "-96.3567164505271"
}, {
	"name": "Wings ‘N More",
	"streetAddress": "1561 W Villa Maria Rd",
	"city": "Bryan",
	"state": "TX",
	"zip": "77807",
	"rating": "4.0",
	"reviews": "7",
	"price": 1,
	"type": "Chicken Wings",
	"lat": "30.6307176708167",
	"lon": "-96.3774849079169"
}, {
	"name": "Sodolaks Beefmasters Restaurant",
	"streetAddress": "3500 Hwy 21 E",
	"city": "Bryan",
	"state": "TX",
	"zip": "77808",
	"rating": "3.5",
	"reviews": "63",
	"price": 2,
	"type": "American (Traditional)",
	"lat": "30.6978644603897",
	"lon": "-96.3571857706109"
}, {
	"name": "Caffe Capri",
	"streetAddress": "222 N Main St",
	"city": "Bryan",
	"state": "TX",
	"zip": "77803",
	"rating": "3.5",
	"reviews": "82",
	"price": 2,
	"type": "Italian",
	"lat": "30.675486589172",
	"lon": "-96.3734957600605"
}, {
	"name": "Amico Nave Ristorante",
	"streetAddress": "203 E Villa Maria Rd",
	"city": "Bryan",
	"state": "TX",
	"zip": "77801",
	"rating": "4.0",
	"reviews": "71",
	"price": 2,
	"type": "Italian",
	"lat": "30.6401209757677",
	"lon": "-96.3567105067623"
}, {
	"name": "Frittella Italian Cafe",
	"streetAddress": "3901 S Texas Ave",
	"city": "Bryan",
	"state": "TX",
	"zip": "77802",
	"rating": "3.5",
	"reviews": "44",
	"price": 1,
	"type": "Italian, Cafes",
	"lat": "30.6354622319747",
	"lon": "-96.3434266757192"
}, {
	"name": "Kreuz Market",
	"streetAddress": "768 N Earl Rudder Fwy",
	"city": "Bryan",
	"state": "TX",
	"zip": "77802",
	"rating": "3.5",
	"reviews": "63",
	"price": 2,
	"type": "Barbeque",
	"lat": "30.6925443376896",
	"lon": "-96.3533666536499"
}, {
	"name": "Must Be Heaven",
	"streetAddress": "100 S Main St",
	"city": "Bryan",
	"state": "TX",
	"zip": "77803",
	"rating": "3.5",
	"reviews": "25",
	"price": 1,
	"type": "Desserts, Sandwiches",
	"lat": "30.6739171282405",
	"lon": "-96.3737133241992"
}, {
	"name": "Martin’s Place",
	"streetAddress": "3403 S College Ave",
	"city": "Bryan",
	"state": "TX",
	"zip": "77801",
	"rating": "4.0",
	"reviews": "44",
	"price": 1,
	"type": "Barbeque",
	"lat": "30.6370665366617",
	"lon": "-96.3559623894094"
}, {
	"name": "Chicken Oil Co",
	"streetAddress": "3600 S College Ave",
	"city": "Bryan",
	"state": "TX",
	"zip": "77801",
	"rating": "3.5",
	"reviews": "50",
	"price": 1,
	"type": "Burgers, American (Traditional)",
	"lat": "30.6344839857629",
	"lon": "-96.3543323015959"
}, {
	"name": "Wokamole Healthy Cuisine",
	"streetAddress": "4001 E 29th St",
	"city": "Bryan",
	"state": "TX",
	"zip": "77802",
	"rating": "4.5",
	"reviews": "18",
	"price": 1,
	"type": "Asian Fusion",
	"lat": "30.6461983700241",
	"lon": "-96.3320261711394"
}, {
	"name": "Cotton Patch Cafe",
	"streetAddress": "940 N Earl Rudder Fwy",
	"city": "Bryan",
	"state": "TX",
	"zip": "77802",
	"rating": "3.5",
	"reviews": "39",
	"price": 2,
	"type": "American (Traditional)",
	"lat": "30.674642206919",
	"lon": "-96.338391419412"
}, {
	"name": "J Cody’s Steaks and BBQ",
	"streetAddress": "3610 S College Ave",
	"city": "Bryan",
	"state": "TX",
	"zip": "77801",
	"rating": "3.5",
	"reviews": "44",
	"price": 2,
	"type": "Barbeque, Steakhouses",
	"lat": "30.6333582566346",
	"lon": "-96.3537313104766"
}, {
	"name": "Kolache Rolf’s",
	"streetAddress": "2305 Boonville Rd",
	"city": "Bryan",
	"state": "TX",
	"zip": "77808",
	"rating": "5.0",
	"reviews": "4",
	"price": 1,
	"type": "Coffee & Tea, Breakfast & Brunch, Bakeries",
	"lat": "30.6734953163375",
	"lon": "-96.3352739736264"
}, {
	"name": "Babylon Cafe and Mediterranean Grill",
	"streetAddress": "3700 S Texas Ave",
	"city": "Bryan",
	"state": "TX",
	"zip": "77802",
	"rating": "3.0",
	"reviews": "43",
	"price": 2,
	"type": "Mediterranean, Hookah Bars",
	"lat": "30.6379446435463",
	"lon": "-96.3469915860092"
}, {
	"name": "Jose’s Restaurant",
	"streetAddress": "3824 S Texas Ave",
	"city": "Bryan",
	"state": "TX",
	"zip": "77802",
	"rating": "3.5",
	"reviews": "28",
	"price": 1,
	"type": "Mexican",
	"lat": "30.6363853060763",
	"lon": "-96.3456788839718"
}, {
	"name": "Maggie’s Taqueria",
	"streetAddress": "1311 South Texas Avenue",
	"city": "Bryan",
	"state": "TX",
	"zip": "77803",
	"rating": "4.5",
	"reviews": "7",
	"price": 1,
	"type": "Mexican",
	"lat": "30.6592570000358",
	"lon": "-96.3701902325159"
}, {
	"name": "La Riviera Restaurant",
	"streetAddress": "3700 S Texas Ave",
	"city": "Bryan",
	"state": "TX",
	"zip": "77802",
	"rating": "3.5",
	"reviews": "47",
	"price": 2,
	"type": "American (New), French, Italian",
	"lat": "30.6379446435463",
	"lon": "-96.3469915860092"
}, {
	"name": "Rockin B. Steakhouse",
	"streetAddress": "3629 Tabor Rd",
	"city": "Bryan",
	"state": "TX",
	"zip": "77808",
	"rating": "3.5",
	"reviews": "23",
	"price": 2,
	"type": "Steakhouses, American (Traditional)",
	"lat": "30.7134025729014",
	"lon": "-96.3712407276706"
}, {
	"name": "Mr G’s Pizzeria",
	"streetAddress": "201 W 26th St",
	"city": "Bryan",
	"state": "TX",
	"zip": "77803",
	"rating": "3.0",
	"reviews": "58",
	"price": 2,
	"type": "Pizza",
	"lat": "30.6735030622163",
	"lon": "-96.3742951540383"
}, {
	"name": "Carter’s Burger",
	"streetAddress": "3105 Texas Ave",
	"city": "Bryan",
	"state": "TX",
	"zip": "77802",
	"rating": "3.5",
	"reviews": "18",
	"price": 1,
	"type": "Burgers",
	"lat": "30.6436416369567",
	"lon": "-96.3533378292398"
}, {
	"name": "Taco Casa",
	"streetAddress": "616 N Earl Rudder Fwy",
	"city": "Bryan",
	"state": "TX",
	"zip": "77802",
	"rating": "3.5",
	"reviews": "17",
	"price": 1,
	"type": "Tex-Mex, Fast Food",
	"lat": "30.6916578450597",
	"lon": "-96.3523644506074"
}, {
	"name": "Bryan Fat Burger",
	"streetAddress": "1801 S Texas Ave",
	"city": "Bryan",
	"state": "TX",
	"zip": "77802",
	"rating": "4.0",
	"reviews": "8",
	"price": 1,
	"type": "Burgers",
	"lat": "30.6146760846714",
	"lon": "-96.3176028473073"
}, {
	"name": "Cafe Eccell",
	"streetAddress": "4401 S Texas Ave",
	"city": "Bryan",
	"state": "TX",
	"zip": "77802",
	"rating": "3.5",
	"reviews": "73",
	"price": 2,
	"type": "Cafes, Pizza",
	"lat": "30.6319156022165",
	"lon": "-96.3389650380309"
}, {
	"name": "Super Donuts",
	"streetAddress": "2100 E WM J Bryan Pkwy",
	"city": "Bryan",
	"state": "TX",
	"zip": "77802",
	"rating": "4.0",
	"reviews": "8",
	"price": 1,
	"type": "Breakfast & Brunch, Donuts",
	"lat": "30.6718584830934",
	"lon": "-96.3463045426195"
}, {
	"name": "Mi Pueblito Mexican",
	"streetAddress": "1315 S College Ave",
	"city": "Bryan",
	"state": "TX",
	"zip": "77801",
	"rating": "4.5",
	"reviews": "12",
	"price": 1,
	"type": "Mexican",
	"lat": "30.6582788162383",
	"lon": "-96.3712614450973"
}, {
	"name": "Las Mexicanas Taqueria",
	"streetAddress": "810 A W Wm J Bryan Pkwy",
	"city": "Bryan",
	"state": "TX",
	"zip": "77803",
	"rating": "4.5",
	"reviews": "3",
	"price": 1,
	"type": "Food Stands, Mexican",
	"lat": "30.6754854375459",
	"lon": "-96.3803386900489"
}, {
	"name": "Molly’s Magnificent Creamery & Eatery",
	"streetAddress": "201 S Main St",
	"city": "Bryan",
	"state": "TX",
	"zip": "77803",
	"rating": "5.0",
	"reviews": "17",
	"price": 1,
	"type": "American (Traditional), Diners",
	"lat": "30.6727782422519",
	"lon": "-96.3732711813219"
}, {
	"name": "Patranella’s Bakery and Cafe",
	"streetAddress": "106 N Parker",
	"city": "Bryan",
	"state": "TX",
	"zip": "77803",
	"rating": "3.5",
	"reviews": "16",
	"price": 2,
	"type": "Bakeries, Italian, American (Traditional)",
	"lat": "30.6745786145911",
	"lon": "-96.3755990434165"
}, {
	"name": "La Familia Taqueria",
	"streetAddress": "300 N Texas Ave",
	"city": "Bryan",
	"state": "TX",
	"zip": "77803",
	"rating": "4.5",
	"reviews": "11",
	"price": 1,
	"type": "Mexican",
	"lat": "30.6755438632532",
	"lon": "-96.3701183670864"
}, {
	"name": "Imperial Chinese & Sushi",
	"streetAddress": "980 N Earl Rudder Fwy",
	"city": "Bryan",
	"state": "TX",
	"zip": "77808",
	"rating": "4.0",
	"reviews": "54",
	"price": 2,
	"type": "Chinese, Sushi Bars, Japanese",
	"lat": "30.6937536181725",
	"lon": "-96.3547876716214"
}, {
	"name": "Taqueria El Sol De Mexico",
	"streetAddress": "725 E Villa Maria Rd",
	"city": "Bryan",
	"state": "TX",
	"zip": "77802",
	"rating": "3.5",
	"reviews": "18",
	"price": 1,
	"type": "Mexican",
	"lat": "30.6438033925059",
	"lon": "-96.3513816549488"
}, {
	"name": "Buppy’s Catering & BBQ Buffet",
	"streetAddress": "506 Sulphur Springs Rd",
	"city": "Bryan",
	"state": "TX",
	"zip": "77801",
	"rating": "3.5",
	"reviews": "10",
	"price": 2,
	"type": "Barbeque, Buffets",
	"lat": "30.6404299795335",
	"lon": "-96.3520797805274"
}, {
	"name": "C & J Barbeque",
	"streetAddress": "1010 S Texas Ave",
	"city": "Bryan",
	"state": "TX",
	"zip": "77803",
	"rating": "3.5",
	"reviews": "18",
	"price": 2,
	"type": "Barbeque",
	"lat": "30.6626822579763",
	"lon": "-96.3721660582522"
}, {
	"name": "Taqueria San Louis",
	"streetAddress": "3700 Leonard Rd",
	"city": "Bryan",
	"state": "TX",
	"zip": "77807",
	"rating": "4.5",
	"reviews": "3",
	"price": 1,
	"type": "Food Trucks, Mexican",
	"lat": "30.6410523253376",
	"lon": "-96.3919095178354"
}, {
	"name": "Cracker Barrel Old Country Store",
	"streetAddress": "3110 Briarcrest Dr",
	"city": "Bryan",
	"state": "TX",
	"zip": "77802",
	"rating": "3.5",
	"reviews": "38",
	"price": 1,
	"type": "American (Traditional), Breakfast & Brunch, Southern",
	"lat": "30.660096",
	"lon": "-96.332343"
}, {
	"name": "Rojo’s Taqueria",
	"streetAddress": "1305 William Joel Bryan Pkwy",
	"city": "Bryan",
	"state": "TX",
	"zip": "77803",
	"rating": "5.0",
	"reviews": "1",
	"price": 0,
	"type": "Mexican, Breakfast & Brunch",
	"lat": "30.681235",
	"lon": "-96.376593"
}, {
	"name": "Lamar & Niki’s Pit BBQ and Soul FoodFood",
	"streetAddress": "2516 S Texas Ave",
	"city": "Bryan",
	"state": "TX",
	"zip": "77803",
	"rating": "5.0",
	"reviews": "9",
	"price": 1,
	"type": "Soul Food, Barbeque",
	"lat": "30.6467703135037",
	"lon": "-96.35794221228"
}, {
	"name": "Must Be Heaven",
	"streetAddress": "1136 E Villa Maria Rd",
	"city": "Bryan",
	"state": "TX",
	"zip": "77802",
	"rating": "3.5",
	"reviews": "12",
	"price": 1,
	"type": "Sandwiches, Desserts",
	"lat": "30.6499852250661",
	"lon": "-96.3482401676585"
}, {
	"name": "La Espiga Dorada Bakery",
	"streetAddress": "210 W Martin Luther King St",
	"city": "Bryan",
	"state": "TX",
	"zip": "77803",
	"rating": "4.5",
	"reviews": "5",
	"price": 1,
	"type": "Mexican, Bakeries",
	"lat": "30.6802660071317",
	"lon": "-96.373280321614"
}, {
	"name": "Casa Rodriguez Restaurant",
	"streetAddress": "300 N Bryan Ave",
	"city": "Bryan",
	"state": "TX",
	"zip": "77803",
	"rating": "3.5",
	"reviews": "67",
	"price": 1,
	"type": "Mexican",
	"lat": "30.675863947151",
	"lon": "-96.3741149475433"
}, {
	"name": "Restaurant San Jose",
	"streetAddress": "414 N Main St",
	"city": "Bryan",
	"state": "TX",
	"zip": "77803",
	"rating": "3.5",
	"reviews": "10",
	"price": 1,
	"type": "Mexican",
	"lat": "30.6770899324706",
	"lon": "-96.3731212181985"
}, {
	"name": "Taquerias Arandas #16",
	"streetAddress": "1816 S Texas Ave",
	"city": "Bryan",
	"state": "TX",
	"zip": "77802",
	"rating": "3.5",
	"reviews": "9",
	"price": 2,
	"type": "Mexican",
	"lat": "30.6523255205195",
	"lon": "-96.3633356829048"
}, {
	"name": "Khairallah Halal Meat",
	"streetAddress": "3525 S Texas Ave",
	"city": "Bryan",
	"state": "TX",
	"zip": "77802",
	"rating": "5.0",
	"reviews": "4",
	"price": 1,
	"type": "Meat Shops, Halal, Grocery",
	"lat": "30.6391726317526",
	"lon": "-96.3482188842485"
}, {
	"name": "Dos Hermanos Taqueria",
	"streetAddress": "3510 S College Ave",
	"city": "Bryan",
	"state": "TX",
	"zip": "77801",
	"rating": "5.0",
	"reviews": "4",
	"price": 1,
	"type": "Food Trucks, Mexican",
	"lat": "30.6353351969294",
	"lon": "-96.3550989593279"
}, {
	"name": "Cicis",
	"streetAddress": "2003 S Texas Ave",
	"city": "Bryan",
	"state": "TX",
	"zip": "77801",
	"rating": "3.5",
	"reviews": "6",
	"price": 1,
	"type": "Pizza, American (Traditional)",
	"lat": "30.6519412804529",
	"lon": "-96.3623288891764"
}, {
	"name": "Papa Murphy’s",
	"streetAddress": "725 E Villa Maria Rd",
	"city": "Bryan",
	"state": "TX",
	"zip": "77802",
	"rating": "5.0",
	"reviews": "6",
	"price": 1,
	"type": "Pizza, Italian",
	"lat": "30.6438033925059",
	"lon": "-96.3513816549488"
}, {
	"name": "Chef Cao’s II",
	"streetAddress": "3105 S Texas Ave",
	"city": "Bryan",
	"state": "TX",
	"zip": "77802",
	"rating": "3.5",
	"reviews": "39",
	"price": 1,
	"type": "Chinese, Thai, Buffets",
	"lat": "30.6436416369567",
	"lon": "-96.3533378292398"
}, {
	"name": "The LaSalle Cafe",
	"streetAddress": "120 S Main St",
	"city": "Bryan",
	"state": "TX",
	"zip": "77803",
	"rating": "3.0",
	"reviews": "6",
	"price": 2,
	"type": "Cafes, Cocktail Bars",
	"lat": "30.6729652886515",
	"lon": "-96.3738385202362"
}, {
	"name": "Pollo Tote",
	"streetAddress": "3227 S Texas Ave",
	"city": "Bryan",
	"state": "TX",
	"zip": "77802",
	"rating": "3.5",
	"reviews": "6",
	"price": 1,
	"type": "Mexican",
	"lat": "30.6426645751096",
	"lon": "-96.3522189370943"
}, {
	"name": "Crawfish to Geaux",
	"streetAddress": "null",
	"city": "Bryan",
	"state": "TX",
	"zip": "77805",
	"rating": "3.5",
	"reviews": "5",
	"price": 1,
	"type": "Street Vendors, Cajun/Creole, Food Trucks",
	"lat": "null",
	"lon": "null"
}, {
	"name": "Master Yakiniku Korean & Japanese BBQ",
	"streetAddress": "3700 S Texas Ave",
	"city": "Bryan",
	"state": "TX",
	"zip": "77802",
	"rating": "4.0",
	"reviews": "14",
	"price": 2,
	"type": "Japanese, Korean, Barbeque",
	"lat": "30.6379446435463",
	"lon": "-96.3469915860092"
}, {
	"name": "T. Jin China Diner #2",
	"streetAddress": "2305 Boonville Rd",
	"city": "Bryan",
	"state": "TX",
	"zip": "77802",
	"rating": "3.0",
	"reviews": "15",
	"price": 2,
	"type": "Chinese",
	"lat": "30.6734953163375",
	"lon": "-96.3352739736264"
}, {
	"name": "Taqueria Romero",
	"streetAddress": "2400 Hwy 21 E",
	"city": "Bryan",
	"state": "TX",
	"zip": "77803",
	"rating": "4.0",
	"reviews": "3",
	"price": 0,
	"type": "Mexican",
	"lat": "30.6921759706917",
	"lon": "-96.3661533277807"
}, {
	"name": "Margie’s Bar & Grill",
	"streetAddress": "320 N Main St",
	"city": "Bryan",
	"state": "TX",
	"zip": "77803",
	"rating": "3.5",
	"reviews": "8",
	"price": 1,
	"type": "Bars, Burgers",
	"lat": "30.6762902579601",
	"lon": "-96.3733843116133"
}, {
	"name": "Chick-fil-A",
	"streetAddress": "2210 Briarcrest Dr",
	"city": "Bryan",
	"state": "TX",
	"zip": "77802",
	"rating": "4.0",
	"reviews": "15",
	"price": 1,
	"type": "Fast Food",
	"lat": "30.6597557272416",
	"lon": "-96.3308989315325"
}, {
	"name": "Papa Perez",
	"streetAddress": "201 S Main St",
	"city": "Bryan",
	"state": "TX",
	"zip": "77803",
	"rating": "3.5",
	"reviews": "47",
	"price": 1,
	"type": "Mexican, Tex-Mex",
	"lat": "30.6727782422519",
	"lon": "-96.3732711813219"
}, {
	"name": "Readfield Meats & Freezer Service",
	"streetAddress": "2701 S Texas Ave",
	"city": "Bryan",
	"state": "TX",
	"zip": "77802",
	"rating": "4.5",
	"reviews": "8",
	"price": 2,
	"type": "Meat Shops, Delis",
	"lat": "30.646220934862",
	"lon": "-96.3559627426074"
}, {
	"name": "Texas 21 Saloon",
	"streetAddress": "5809 Hwy 21 E",
	"city": "Bryan",
	"state": "TX",
	"zip": "77808",
	"rating": "4.5",
	"reviews": "2",
	"price": 1,
	"type": "Bars, Burgers",
	"lat": "30.7108735840076",
	"lon": "-96.3459188009766"
}, {
	"name": "Revolution Cafe & Bar",
	"streetAddress": "211 B S Main St",
	"city": "Bryan",
	"state": "TX",
	"zip": "77806",
	"rating": "4.5",
	"reviews": "17",
	"price": 1,
	"type": "Music Venues, Coffee & Tea, Bars",
	"lat": "30.672623316849",
	"lon": "-96.3734822536327"
}, {
	"name": "Taqueria El Nopalito",
	"streetAddress": "216 Martin Luther King Jr.",
	"city": "Bryan",
	"state": "TX",
	"zip": "77803",
	"rating": "3.5",
	"reviews": "5",
	"price": 1,
	"type": "Mexican",
	"lat": "30.681235",
	"lon": "-96.376593"
}, {
	"name": "La Reina Del Sur Tacos Truck",
	"streetAddress": "3803 S Texas Ave",
	"city": "Bryan",
	"state": "TX",
	"zip": "77802",
	"rating": "5.0",
	"reviews": "1",
	"price": 0,
	"type": "Street Vendors, Mexican, Food Trucks",
	"lat": "30.6373709870153",
	"lon": "-96.3460292723907"
}, {
	"name": "Wings ‘N More Express",
	"streetAddress": "2612 Hwy 21 E",
	"city": "Bryan",
	"state": "TX",
	"zip": "77803",
	"rating": "4.0",
	"reviews": "6",
	"price": 1,
	"type": "Chicken Wings",
	"lat": "30.6935996996089",
	"lon": "-96.3637999976427"
}, {
	"name": "Pepper’s Cocina",
	"streetAddress": "1411 San Jacinto Ln Hwy 21",
	"city": "Bryan",
	"state": "TX",
	"zip": "77802",
	"rating": "4.0",
	"reviews": "4",
	"price": 2,
	"type": "Mexican, Tex-Mex",
	"lat": "30.660096",
	"lon": "-96.332343"
}, {
	"name": "La Botana Mexican Restaurant",
	"streetAddress": "2210 Wm J Bryan Pkwy",
	"city": "Bryan",
	"state": "TX",
	"zip": "77802",
	"rating": "2.5",
	"reviews": "15",
	"price": 1,
	"type": "Mexican",
	"lat": "30.6724265863531",
	"lon": "-96.3406666187384"
}, {
	"name": "Taqueria La Perla",
	"streetAddress": "111 N Brazos Ave",
	"city": "Bryan",
	"state": "TX",
	"zip": "77803",
	"rating": "4.5",
	"reviews": "4",
	"price": 1,
	"type": "Mexican",
	"lat": "30.674991959281",
	"lon": "-96.3843801538109"
}, {
	"name": "Lakeside Icehouse and Grill",
	"streetAddress": "8200 Sandy Point Rd",
	"city": "Bryan",
	"state": "TX",
	"zip": "77807",
	"rating": "3.0",
	"reviews": "9",
	"price": 2,
	"type": "Burgers",
	"lat": "30.7138019795417",
	"lon": "-96.4644848824064"
}, {
	"name": "Domino’s Pizza",
	"streetAddress": "2211 E Wm J Bryan Pkwy",
	"city": "Bryan",
	"state": "TX",
	"zip": "77802",
	"rating": "3.0",
	"reviews": "9",
	"price": 1,
	"type": "Pizza, Chicken Wings, Sandwiches",
	"lat": "30.6715254766377",
	"lon": "-96.3404069521574"
}, {
	"name": "Wienerschnitzel",
	"streetAddress": "501 South Texas Ave",
	"city": "Bryan",
	"state": "TX",
	"zip": "77801",
	"rating": "3.5",
	"reviews": "4",
	"price": 1,
	"type": "Hot Dogs, Fast Food, Sandwiches",
	"lat": "30.627902072119",
	"lon": "-96.3343415498655"
}, {
	"name": "Kettle Restaurant",
	"streetAddress": "2712 S Texas Ave",
	"city": "Bryan",
	"state": "TX",
	"zip": "77802",
	"rating": "3.5",
	"reviews": "10",
	"price": 1,
	"type": "Diners",
	"lat": "30.6450793943586",
	"lon": "-96.3559402575734"
}, {
	"name": "IHop",
	"streetAddress": "758 N Earl Rudder Fwy",
	"city": "Bryan",
	"state": "TX",
	"zip": "77803",
	"rating": "2.0",
	"reviews": "24",
	"price": 1,
	"type": "American (New)",
	"lat": "30.6924859198137",
	"lon": "-96.3533007806547"
}, {
	"name": "Dairy Queen",
	"streetAddress": "205 N Texas Ave",
	"city": "Bryan",
	"state": "TX",
	"zip": "77803",
	"rating": "5.0",
	"reviews": "1",
	"price": 2,
	"type": "Fast Food, Ice Cream & Frozen Yogurt",
	"lat": "30.6749445253584",
	"lon": "-96.3695853154451"
}, {
	"name": "BCS Fish & Ribs Drive Inn",
	"streetAddress": "800 San Jacinto",
	"city": "Bryan",
	"state": "TX",
	"zip": "77803",
	"rating": "5.0",
	"reviews": "1",
	"price": 0,
	"type": "Soul Food",
	"lat": "30.6833387163708",
	"lon": "-96.3824946563073"
}, {
	"name": "Smetana Cafe & Taqueria",
	"streetAddress": "7700 W State Hwy 21",
	"city": "Bryan",
	"state": "TX",
	"zip": "77807",
	"rating": "4.5",
	"reviews": "2",
	"price": 0,
	"type": "Tex-Mex, Burgers, Comfort Food",
	"lat": "30.653149330995",
	"lon": "-96.4551188075411"
}, {
	"name": "El Cowboy Taco-ntento",
	"streetAddress": "905 Hwy 21 W",
	"city": "Bryan",
	"state": "TX",
	"zip": "77803",
	"rating": "5.0",
	"reviews": "1",
	"price": 0,
	"type": "Mexican",
	"lat": "30.6837353663232",
	"lon": "-96.381381643749"
}, {
	"name": "Popeyes Louisiana Kitchen",
	"streetAddress": "505 N Harvey Mitchell Pkwy",
	"city": "Bryan",
	"state": "TX",
	"zip": "77807",
	"rating": "2.5",
	"reviews": "7",
	"price": 1,
	"type": "Fast Food, Chicken Wings",
	"lat": "30.6330232834912",
	"lon": "-96.3780185763443"
}, {
	"name": "Huerta’s Taqueria Truck",
	"streetAddress": "5300 N. Texas Ave.",
	"city": "Bryan",
	"state": "TX",
	"zip": "77803",
	"rating": "5.0",
	"reviews": "1",
	"price": 0,
	"type": "Mexican, Food Stands",
	"lat": "30.7127299812091",
	"lon": "-96.4072391095063"
}, {
	"name": "Whataburger",
	"streetAddress": "3109 South Texas Avenue",
	"city": "Bryan",
	"state": "TX",
	"zip": "77802",
	"rating": "2.5",
	"reviews": "13",
	"price": 1,
	"type": "Fast Food, Burgers, American (Traditional)",
	"lat": "30.6424236010691",
	"lon": "-96.3512141731838"
}, {
	"name": "Top of the Hill",
	"streetAddress": "2444 Lakewood",
	"city": "Bryan",
	"state": "TX",
	"zip": "77807",
	"rating": "4.0",
	"reviews": "1",
	"price": 0,
	"type": "American (Traditional), Burgers, Sandwiches",
	"lat": "30.729837943916",
	"lon": "-96.4731031657456"
}, {
	"name": "Hot Dogs & Wings Etc",
	"streetAddress": "310 N. Texas Ave.",
	"city": "Bryan",
	"state": "TX",
	"zip": "77803",
	"rating": "3.0",
	"reviews": "8",
	"price": 1,
	"type": "Hot Dogs, Burgers, American (Traditional)",
	"lat": "30.6759205941324",
	"lon": "-96.370146212524"
}, {
	"name": "Pik Pak Push",
	"streetAddress": "null",
	"city": "Bryan",
	"state": "TX",
	"zip": "77802",
	"rating": "5.0",
	"reviews": "2",
	"price": 1,
	"type": "Food Trucks, Filipino",
	"lat": "null",
	"lon": "null"
}, {
	"name": "Laredo Taco Company",
	"streetAddress": "600 N Earl Rudder Fwy",
	"city": "Bryan",
	"state": "TX",
	"zip": "77802",
	"rating": "3.5",
	"reviews": "3",
	"price": 0,
	"type": "Mexican",
	"lat": "30.6915651555973",
	"lon": "-96.3522584504654"
}, {
	"name": "Coco Loco",
	"streetAddress": "1607 S Texas Ave",
	"city": "Bryan",
	"state": "TX",
	"zip": "77802",
	"rating": "4.0",
	"reviews": "8",
	"price": 1,
	"type": "Mexican",
	"lat": "30.6890803782725",
	"lon": "-96.3724255262971"
}, {
	"name": "Truman Chocolates",
	"streetAddress": "4407 S Texas Ave",
	"city": "Bryan",
	"state": "TX",
	"zip": "77802",
	"rating": "4.5",
	"reviews": "10",
	"price": 3,
	"type": "Chocolatiers & Shops",
	"lat": "30.7069150813255",
	"lon": "-96.3971721168038"
}, {
	"name": "Longhorn Tavern",
	"streetAddress": "201 E 24th St",
	"city": "Bryan",
	"state": "TX",
	"zip": "77803",
	"rating": "3.0",
	"reviews": "31",
	"price": 2,
	"type": "Steakhouses",
	"lat": "30.6751578995768",
	"lon": "-96.3717308358062"
}, {
	"name": "Ocean Buffet",
	"streetAddress": "1701 S Texas Ave",
	"city": "Bryan",
	"state": "TX",
	"zip": "77802",
	"rating": "2.0",
	"reviews": "10",
	"price": 1,
	"type": "Buffets",
	"lat": "30.6548155527355",
	"lon": "-96.3646573868656"
}, {
	"name": "Eatology Paleo Zone",
	"streetAddress": "4337 Wellborn Rd",
	"city": "Bryan",
	"state": "TX",
	"zip": "77801",
	"rating": "4.5",
	"reviews": "4",
	"price": 0,
	"type": "Do-It-Yourself Food",
	"lat": "30.6218261327669",
	"lon": "-96.3537284993262"
}, {
	"name": "Pepe’s Mexican Cafe",
	"streetAddress": "3312 S College Ave",
	"city": "Bryan",
	"state": "TX",
	"zip": "77801",
	"rating": "3.5",
	"reviews": "19",
	"price": 1,
	"type": "Mexican, Tex-Mex",
	"lat": "30.6375570645889",
	"lon": "-96.3571354765356"
}, {
	"name": "Los Dos Laredos Taqueria",
	"streetAddress": "123 Bomber Ln",
	"city": "Bryan",
	"state": "TX",
	"zip": "77801",
	"rating": "4.0",
	"reviews": "1",
	"price": 1,
	"type": "Food Trucks, Mexican",
	"lat": "30.88972",
	"lon": "-96.29445"
}, {
	"name": "Denny’s",
	"streetAddress": "2890 Harvey Mitchell Parkway",
	"city": "Bryan",
	"state": "TX",
	"zip": "77807",
	"rating": "4.5",
	"reviews": "3",
	"price": 1,
	"type": "Breakfast & Brunch, American (Traditional)",
	"lat": "30.622933",
	"lon": "-96.385176"
}, {
	"name": "Las Mexicanas Taqueria",
	"streetAddress": "1403 Briarcrest Dr",
	"city": "Bryan",
	"state": "TX",
	"zip": "77802",
	"rating": "4.5",
	"reviews": "2",
	"price": 0,
	"type": "Mexican",
	"lat": "30.6509563820539",
	"lon": "-96.3429038010793"
}, {
	"name": "The Vintage House",
	"streetAddress": "4545 Old Reliance Rd",
	"city": "Bryan",
	"state": "TX",
	"zip": "77808",
	"rating": "4.0",
	"reviews": "24",
	"price": 3,
	"type": "Wineries",
	"lat": "30.7013236703878",
	"lon": "-96.325189813357"
}, {
	"name": "La Michoacana Taqueria",
	"streetAddress": "2001 E Hiway 21",
	"city": "Bryan",
	"state": "TX",
	"zip": "77803",
	"rating": "4.0",
	"reviews": "1",
	"price": 1,
	"type": "Mexican, Vegetarian, Latin American",
	"lat": "30.6899758507636",
	"lon": "-96.3693530006237"
}, {
	"name": "Taco Bell",
	"streetAddress": "920 South Texas Ave",
	"city": "Bryan",
	"state": "TX",
	"zip": "77803",
	"rating": "3.0",
	"reviews": "2",
	"price": 1,
	"type": "Mexican, Tex-Mex, Fast Food",
	"lat": "30.6638505286308",
	"lon": "-96.3719982469358"
}, {
	"name": "Los Cucos Mexican Cafe",
	"streetAddress": "920 Earl Rudder Fwy",
	"city": "Bryan",
	"state": "TX",
	"zip": "77808",
	"rating": "3.0",
	"reviews": "15",
	"price": 2,
	"type": "Tex-Mex, Cafes",
	"lat": "30.6759377759714",
	"lon": "-96.3365945868355"
}, {
	"name": "Ely’s Tacos",
	"streetAddress": "2208 Finfeather Rd",
	"city": "Bryan",
	"state": "TX",
	"zip": "77801",
	"rating": "4.0",
	"reviews": "1",
	"price": 0,
	"type": "Mexican",
	"lat": "30.645078708608",
	"lon": "-96.3760507575523"
}, {
	"name": "Little Caesars Pizza",
	"streetAddress": "801 Dellwood St",
	"city": "Bryan",
	"state": "TX",
	"zip": "77802",
	"rating": "3.0",
	"reviews": "3",
	"price": 1,
	"type": "Pizza",
	"lat": "30.64471808806",
	"lon": "-96.353436228547"
}, {
	"name": "Sonic",
	"streetAddress": "2400 Briarcrest Dr",
	"city": "Bryan",
	"state": "TX",
	"zip": "77802",
	"rating": "2.0",
	"reviews": "5",
	"price": 1,
	"type": "Fast Food",
	"lat": "30.6603165865643",
	"lon": "-96.3302823427821"
}, {
	"name": "Farm Patch Produce Market",
	"streetAddress": "3519 S College Ave",
	"city": "Bryan",
	"state": "TX",
	"zip": "77801",
	"rating": "5.0",
	"reviews": "19",
	"price": 1,
	"type": "Fruits & Veggies, Ethnic Food",
	"lat": "30.6354705732525",
	"lon": "-96.3545837244072"
}, {
	"name": "Frank’s Country Store",
	"streetAddress": "6497 FM 1179",
	"city": "Bryan",
	"state": "TX",
	"zip": "77808",
	"rating": "4.0",
	"reviews": "2",
	"price": 0,
	"type": "Burgers",
	"lat": "30.6970478602739",
	"lon": "-96.2895219760688"
}, {
	"name": "La Perla Tapatia",
	"streetAddress": "111 N Brazos Ave",
	"city": "Bryan",
	"state": "TX",
	"zip": "77803",
	"rating": "3.0",
	"reviews": "2",
	"price": 1,
	"type": "Mexican",
	"lat": "30.674991959281",
	"lon": "-96.3843801538109"
}, {
	"name": "Taqueria Mexico",
	"streetAddress": "1605 San Jacinto Ln",
	"city": "Bryan",
	"state": "TX",
	"zip": "77803",
	"rating": "2.5",
	"reviews": "3",
	"price": 0,
	"type": "Mexican",
	"lat": "30.6870704734476",
	"lon": "-96.3737394350761"
}, {
	"name": "Casa Ole",
	"streetAddress": "3201 Freedom Blvd",
	"city": "Bryan",
	"state": "TX",
	"zip": "77802",
	"rating": "3.0",
	"reviews": "14",
	"price": 2,
	"type": "Mexican",
	"lat": "30.6601550490197",
	"lon": "-96.3296524032926"
}, {
	"name": "The Market Bistro",
	"streetAddress": "5827 Leonard Rd",
	"city": "Bryan",
	"state": "TX",
	"zip": "77807",
	"rating": "4.0",
	"reviews": "1",
	"price": 0,
	"type": "Burgers",
	"lat": "30.6217194416514",
	"lon": "-96.4160267797518"
}, {
	"name": "Tienda Mi Ranchito Taqueria",
	"streetAddress": "503 N Texas Ave",
	"city": "Bryan",
	"state": "TX",
	"zip": "77803",
	"rating": "4.0",
	"reviews": "1",
	"price": 0,
	"type": "Mexican",
	"lat": "30.6773542255589",
	"lon": "-96.3691894302921"
}, {
	"name": "Pizza Hut",
	"streetAddress": "4207 Wellborn Rd",
	"city": "Bryan",
	"state": "TX",
	"zip": "77801",
	"rating": "2.0",
	"reviews": "7",
	"price": 2,
	"type": "Pizza, Italian, Chicken Wings",
	"lat": "30.6224267897023",
	"lon": "-96.3542769664805"
}, {
	"name": "Taqueria Puro Potosino II",
	"streetAddress": "308 E Martin Luther King",
	"city": "Bryan",
	"state": "TX",
	"zip": "77803",
	"rating": "4.0",
	"reviews": "1",
	"price": 0,
	"type": "Mexican",
	"lat": "30.6803791641557",
	"lon": "-96.3743557941987"
}, {
	"name": "Disciples Cafe",
	"streetAddress": "1100 Carter Creek Pkwy",
	"city": "Bryan",
	"state": "TX",
	"zip": "77802",
	"rating": "4.0",
	"reviews": "1",
	"price": 0,
	"type": "American (Traditional)",
	"lat": "30.6608145659619",
	"lon": "-96.363107966778"
}, {
	"name": "Backstage Bistro",
	"streetAddress": "950 N Earl Rudder Fwy",
	"city": "Bryan",
	"state": "TX",
	"zip": "77808",
	"rating": "4.0",
	"reviews": "1",
	"price": 0,
	"type": "Wine Bars, Cafes, Burgers",
	"lat": "30.6935826300465",
	"lon": "-96.3545863801485"
}, {
	"name": "El Pollo Caliente",
	"streetAddress": "601 W Wm J Bryan Pkwy",
	"city": "Bryan",
	"state": "TX",
	"zip": "77803",
	"rating": "4.0",
	"reviews": "1",
	"price": 0,
	"type": "Restaurants",
	"lat": "30.6749202221611",
	"lon": "-96.378595406481"
}, {
	"name": "Doubledave’s Pizzaworks",
	"streetAddress": "2305 Boonville Rd",
	"city": "Bryan",
	"state": "TX",
	"zip": "77802",
	"rating": "3.0",
	"reviews": "9",
	"price": 1,
	"type": "Pizza",
	"lat": "30.6734953163375",
	"lon": "-96.3352739736264"
}, {
	"name": "Pizza Hut",
	"streetAddress": "3001 Wildflower Drive",
	"city": "Bryan",
	"state": "TX",
	"zip": "77802",
	"rating": "2.0",
	"reviews": "6",
	"price": 0,
	"type": "Pizza, Italian, Chicken Wings",
	"lat": "30.660096",
	"lon": "-96.332343"
}, {
	"name": "Fred and Fred Seafood Market",
	"streetAddress": "3605 S College Ave",
	"city": "Bryan",
	"state": "TX",
	"zip": "77801",
	"rating": "5.0",
	"reviews": "10",
	"price": 2,
	"type": "Seafood Markets",
	"lat": "30.6346799225503",
	"lon": "-96.3537678715128"
}, {
	"name": "T Garden Cafe Tea Garden & Wine Patio",
	"streetAddress": "108 North Avenue East",
	"city": "Bryan",
	"state": "TX",
	"zip": "77801",
	"rating": "3.0",
	"reviews": "2",
	"price": 0,
	"type": "Restaurants",
	"lat": "30.6335754567714",
	"lon": "-96.3514348740319"
}, {
	"name": "McDonald’s",
	"streetAddress": "2930 Hwy 21 E",
	"city": "Bryan",
	"state": "TX",
	"zip": "77803",
	"rating": "4.0",
	"reviews": "2",
	"price": 1,
	"type": "Burgers, Fast Food",
	"lat": "30.6950242829388",
	"lon": "-96.3614612151442"
}, {
	"name": "Chicken Express",
	"streetAddress": "401 S Texas Ave",
	"city": "Bryan",
	"state": "TX",
	"zip": "77803",
	"rating": "3.0",
	"reviews": "3",
	"price": 1,
	"type": "Chicken Wings",
	"lat": "30.6702038114106",
	"lon": "-96.3702599836203"
}, {
	"name": "Kai’s Doughnut",
	"streetAddress": "4201 Wellborn Rd",
	"city": "Bryan",
	"state": "TX",
	"zip": "77801",
	"rating": "4.5",
	"reviews": "29",
	"price": 1,
	"type": "Donuts, Coffee & Tea",
	"lat": "30.6217884354596",
	"lon": "-96.3533051697468"
}, {
	"name": "Subway",
	"streetAddress": "1612 W Villa Maria Rd",
	"city": "Bryan",
	"state": "TX",
	"zip": "77801",
	"rating": "5.0",
	"reviews": "2",
	"price": 0,
	"type": "Sandwiches, Fast Food",
	"lat": "30.6516894451622",
	"lon": "-96.3481955060768"
}, {
	"name": "Potato Shack Express",
	"streetAddress": "3404 Hwy 21 E",
	"city": "Bryan",
	"state": "TX",
	"zip": "77808",
	"rating": "2.0",
	"reviews": "3",
	"price": 3,
	"type": "Salad, Fast Food, Sandwiches",
	"lat": "30.6971587355868",
	"lon": "-96.3581448810455"
}, {
	"name": "Subway",
	"streetAddress": "330 George Bush Dr",
	"city": "Bryan",
	"state": "TX",
	"zip": "77801",
	"rating": "3.5",
	"reviews": "3",
	"price": 1,
	"type": "Sandwiches, Fast Food",
	"lat": "30.88972",
	"lon": "-96.29445"
}, {
	"name": "J & J Asian Bistro",
	"streetAddress": "3203 Freedom Blvd",
	"city": "Bryan",
	"state": "TX",
	"zip": "77802",
	"rating": "3.0",
	"reviews": "2",
	"price": 0,
	"type": "Chinese",
	"lat": "30.659813209854",
	"lon": "-96.3293424687064"
}, {
	"name": "Subway",
	"streetAddress": "2305 Boonville Rd",
	"city": "Bryan",
	"state": "TX",
	"zip": "77808",
	"rating": "3.0",
	"reviews": "1",
	"price": 1,
	"type": "Sandwiches, Fast Food",
	"lat": "30.6734953163375",
	"lon": "-96.3352739736264"
}, {
	"name": "McDonald’s",
	"streetAddress": "2200 Briarcrest Dr",
	"city": "Bryan",
	"state": "TX",
	"zip": "77802",
	"rating": "2.0",
	"reviews": "3",
	"price": 1,
	"type": "Burgers, Fast Food",
	"lat": "30.6593574074913",
	"lon": "-96.3311935765372"
}, {
	"name": "Mi Casita Potosina",
	"streetAddress": "1910 La Brisa",
	"city": "Bryan",
	"state": "TX",
	"zip": "77807",
	"rating": "3.0",
	"reviews": "1",
	"price": 0,
	"type": "Mexican",
	"lat": "30.6254232363943",
	"lon": "-96.3777473568201"
}, {
	"name": "Wendy’s",
	"streetAddress": "891 N Earl Rudder Fwy",
	"city": "Bryan",
	"state": "TX",
	"zip": "77802",
	"rating": "2.5",
	"reviews": "2",
	"price": 0,
	"type": "Burgers, Fast Food",
	"lat": "30.6714848385371",
	"lon": "-96.3397603224647"
}, {
	"name": "Taco Cabana",
	"streetAddress": "2410 Briarcrest Drive",
	"city": "Bryan",
	"state": "TX",
	"zip": "77802",
	"rating": "2.0",
	"reviews": "5",
	"price": 1,
	"type": "Mexican",
	"lat": "30.6606980036174",
	"lon": "-96.3298625219047"
}, {
	"name": "Robert’s Taqueria",
	"streetAddress": "1403 Briarcrest Dr",
	"city": "Bryan",
	"state": "TX",
	"zip": "77802",
	"rating": "3.0",
	"reviews": "1",
	"price": 0,
	"type": "Tex-Mex",
	"lat": "30.6509563820539",
	"lon": "-96.3429038010793"
}, {
	"name": "Amigos Taqueria",
	"streetAddress": "1138 Finfeather",
	"city": "Bryan",
	"state": "TX",
	"zip": "77803",
	"rating": "3.0",
	"reviews": "1",
	"price": 0,
	"type": "Mexican",
	"lat": "30.6632381931863",
	"lon": "-96.3747285886559"
}, {
	"name": "Panda Express",
	"streetAddress": "639 N Harvey Mitchell Pkwy",
	"city": "Bryan",
	"state": "TX",
	"zip": "77803",
	"rating": "2.5",
	"reviews": "5",
	"price": 1,
	"type": "Desserts, Chicken Wings",
	"lat": "30.6481057265604",
	"lon": "-96.3934406857781"
}, {
	"name": "Donald Donuts",
	"streetAddress": "4248 Booneville Rd",
	"city": "Bryan",
	"state": "TX",
	"zip": "77802",
	"rating": "3.0",
	"reviews": "1",
	"price": 0,
	"type": "Donuts, Breakfast & Brunch",
	"lat": "30.6624110990864",
	"lon": "-96.3047018084068"
}, {
	"name": "Fabulous Fare Bakery",
	"streetAddress": "null",
	"city": "Bryan",
	"state": "TX",
	"zip": "77805",
	"rating": "5.0",
	"reviews": "5",
	"price": 1,
	"type": "Bakeries",
	"lat": "null",
	"lon": "null"
}, {
	"name": "Pollo El Mexicano Taqueria",
	"streetAddress": "1701 N. Texas Ave",
	"city": "Bryan",
	"state": "TX",
	"zip": "77803",
	"rating": "3.0",
	"reviews": "1",
	"price": 0,
	"type": "Mexican",
	"lat": "30.6548155527355",
	"lon": "-96.3646573868656"
}, {
	"name": "Shanghai Wok",
	"streetAddress": "725 E Villa Maria Rd",
	"city": "Bryan",
	"state": "TX",
	"zip": "77802",
	"rating": "2.0",
	"reviews": "1",
	"price": 0,
	"type": "Chinese",
	"lat": "30.6438033925059",
	"lon": "-96.3513816549488"
}, {
	"name": "Taqueria Las Mexicanas Truck",
	"streetAddress": "1600 S College Ave",
	"city": "Bryan",
	"state": "TX",
	"zip": "77801",
	"rating": "5.0",
	"reviews": "1",
	"price": 0,
	"type": "Street Vendors, Mexican, Food Stands",
	"lat": "30.6544695688905",
	"lon": "-96.3697171753792"
}, {
	"name": "China Wok Express",
	"streetAddress": "612 E Villa Maria Rd",
	"city": "Bryan",
	"state": "TX",
	"zip": "77802",
	"rating": "1.5",
	"reviews": "5",
	"price": 2,
	"type": "Chinese",
	"lat": "30.6443502923898",
	"lon": "-96.35307475518"
}, {
	"name": "Subway",
	"streetAddress": "3601 E 29th St",
	"city": "Bryan",
	"state": "TX",
	"zip": "77802",
	"rating": "2.0",
	"reviews": "1",
	"price": 0,
	"type": "Sandwiches, Fast Food",
	"lat": "30.6506278243299",
	"lon": "-96.3345735944345"
}, {
	"name": "Pollo El Mexicano",
	"streetAddress": "1000 San Jacinto Ln",
	"city": "Bryan",
	"state": "TX",
	"zip": "77803",
	"rating": "2.0",
	"reviews": "2",
	"price": 0,
	"type": "Mexican",
	"lat": "30.6848446807921",
	"lon": "-96.3802640591204"
}, {
	"name": "KFC",
	"streetAddress": "3321 Texas Avenue",
	"city": "Bryan",
	"state": "TX",
	"zip": "77802",
	"rating": "2.0",
	"reviews": "7",
	"price": 1,
	"type": "Fast Food, Chicken Wings",
	"lat": "30.6406867637724",
	"lon": "-96.349901732336"
}, {
	"name": "Everybody Eats FoodFood",
	"streetAddress": "3201 University Dr E",
	"city": "Bryan",
	"state": "TX",
	"zip": "77802",
	"rating": "4.5",
	"reviews": "2",
	"price": 1,
	"type": "Do-It-Yourself Food, Health Markets",
	"lat": "30.6507403699653",
	"lon": "-96.2973510022869"
}, {
	"name": "Long John Silver’s",
	"streetAddress": "3224 S Texas Ave",
	"city": "Bryan",
	"state": "TX",
	"zip": "77802",
	"rating": "1.5",
	"reviews": "3",
	"price": 1,
	"type": "American (New)",
	"lat": "30.6408257446614",
	"lon": "-96.3509161012985"
}, {
	"name": "Messina Hof Winery & Resort",
	"streetAddress": "null",
	"city": "null",
	"state": "null",
	"zip": "null",
	"rating": "3.5",
	"reviews": "44",
	"price": 2,
	"type": "Wine Tours, Wine Tasting Room",
	"lat": "null",
	"lon": "null"
}, {
	"name": "Cafe Bistro",
	"streetAddress": "950 N Earl Rudder Fwy",
	"city": "Bryan",
	"state": "TX",
	"zip": "77802",
	"rating": "2.0",
	"reviews": "1",
	"price": 0,
	"type": "Burgers, American (Traditional)",
	"lat": "30.6935826300465",
	"lon": "-96.3545863801485"
}, {
	"name": "Seafood House",
	"streetAddress": "1000 San Jacinto Ln",
	"city": "Bryan",
	"state": "TX",
	"zip": "77803",
	"rating": "2.0",
	"reviews": "1",
	"price": 0,
	"type": "Seafood",
	"lat": "30.6848446807921",
	"lon": "-96.3802640591204"
}, {
	"name": "Popeyes Chicken and Biscuits",
	"streetAddress": "890 N Earl Rudder Fwy",
	"city": "Bryan",
	"state": "TX",
	"zip": "77802",
	"rating": "1.5",
	"reviews": "4",
	"price": 1,
	"type": "Chicken Wings",
	"lat": "30.6715291460387",
	"lon": "-96.3362088750721"
}, {
	"name": "Hunt Brothers Pizza",
	"streetAddress": "7700 W State Hwy 21",
	"city": "Bryan",
	"state": "TX",
	"zip": "77807",
	"rating": "2.0",
	"reviews": "1",
	"price": 0,
	"type": "Pizza",
	"lat": "30.653149330995",
	"lon": "-96.4551188075411"
}, {
	"name": "Subway",
	"streetAddress": "725 E Villa Maria Rd",
	"city": "Bryan",
	"state": "TX",
	"zip": "77802",
	"rating": "3.0",
	"reviews": "2",
	"price": 1,
	"type": "Sandwiches",
	"lat": "30.6438033925059",
	"lon": "-96.3513816549488"
}, {
	"name": "McDonald’s",
	"streetAddress": "825 W Villa Maria Rd",
	"city": "Bryan",
	"state": "TX",
	"zip": "77801",
	"rating": "1.5",
	"reviews": "2",
	"price": 0,
	"type": "Fast Food, Burgers",
	"lat": "30.6461702709876",
	"lon": "-96.3497679120095"
}, {
	"name": "Dairy Queen",
	"streetAddress": "413 E Villa Maria Rd",
	"city": "Bryan",
	"state": "TX",
	"zip": "77801",
	"rating": "1.5",
	"reviews": "2",
	"price": 0,
	"type": "Fast Food, Ice Cream & Frozen Yogurt",
	"lat": "30.6426278767685",
	"lon": "-96.3540893984596"
}, {
	"name": "Jack in the Box",
	"streetAddress": "2906 S Texas Ave",
	"city": "Bryan",
	"state": "TX",
	"zip": "77802",
	"rating": "1.0",
	"reviews": "2",
	"price": 0,
	"type": "Fast Food",
	"lat": "30.6434830406358",
	"lon": "-96.3540563410846"
}, {
	"name": "Whataburger",
	"streetAddress": "902 South Texas Ave",
	"city": "Bryan",
	"state": "TX",
	"zip": "77803",
	"rating": "1.0",
	"reviews": "1",
	"price": 1,
	"type": "Burgers, Fast Food, American (Traditional)",
	"lat": "30.6648651435205",
	"lon": "-96.3718504830959"
}, {
	"name": "La Riviera Restaurant & Bakery",
	"streetAddress": "3700 S Texas Ave.",
	"city": "Bryan",
	"state": "TX",
	"zip": "77802",
	"rating": "1.0",
	"reviews": "1",
	"price": 2,
	"type": "Caterers, Steakhouses",
	"lat": "30.6379446435463",
	"lon": "-96.3469915860092"
}, {
	"name": "Sonic Drive In",
	"streetAddress": "914 S Texas Ave",
	"city": "Bryan",
	"state": "TX",
	"zip": "77803",
	"rating": "1.0",
	"reviews": "1",
	"price": 1,
	"type": "Fast Food",
	"lat": "30.6642213113848",
	"lon": "-96.3719442503356"
}, {
	"name": "McDonald’s",
	"streetAddress": "700 S Texas Ave",
	"city": "Bryan",
	"state": "TX",
	"zip": "77803",
	"rating": "1.0",
	"reviews": "1",
	"price": 1,
	"type": "Fast Food, Burgers",
	"lat": "30.6674402144905",
	"lon": "-96.3714731738894"
}, {
	"name": "Subway",
	"streetAddress": "100 N Main St",
	"city": "Bryan",
	"state": "TX",
	"zip": "77803",
	"rating": "2.5",
	"reviews": "2",
	"price": 1,
	"type": "Fast Food, Sandwiches",
	"lat": "30.6739171282405",
	"lon": "-96.3737133241992"
}, {
	"name": "Lone Star Grocery",
	"streetAddress": "710 San Jacinto Ln",
	"city": "Bryan",
	"state": "TX",
	"zip": "77803",
	"rating": "null",
	"reviews": "null",
	"price": 1,
	"type": "Grocery, Convenience Stores, Burgers",
	"lat": "30.6825589604224",
	"lon": "-96.382444550088"
}, {
	"name": "Little Caesars Pizza",
	"streetAddress": "2290 Boonville Rd",
	"city": "Bryan",
	"state": "TX",
	"zip": "77808",
	"rating": "null",
	"reviews": "null",
	"price": 0,
	"type": "Pizza",
	"lat": "30.6715022416848",
	"lon": "-96.3356326383888"
}, {
	"name": "Benchley Country Store & Grill",
	"streetAddress": "2464 Lakewood Dr",
	"city": "Bryan",
	"state": "TX",
	"zip": "77807",
	"rating": "null",
	"reviews": "null",
	"price": 1,
	"type": "American (New)",
	"lat": "30.7296041454591",
	"lon": "-96.4727774793841"
}, {
	"name": "Hungry Howie’s Pizza",
	"streetAddress": "4501 S. Texas Ave",
	"city": "Bryan",
	"state": "TX",
	"zip": "77802",
	"rating": "null",
	"reviews": "null",
	"price": 0,
	"type": "Pizza",
	"lat": "30.631654889129",
	"lon": "-96.3377392484427"
}, {
	"name": "Starbucks",
	"streetAddress": "601 E Villa Maria Rd",
	"city": "Bryan",
	"state": "TX",
	"zip": "77802",
	"rating": "3.5",
	"reviews": "16",
	"price": 2,
	"type": "Coffee & Tea",
	"lat": "30.6437381704249",
	"lon": "-96.3526509508417"
}, {
	"name": "Sloppy Joe’s Deli & Catering",
	"streetAddress": "2700 S Texas Ave",
	"city": "Bryan",
	"state": "TX",
	"zip": "77802",
	"rating": "1.0",
	"reviews": "1",
	"price": 0,
	"type": "Delis",
	"lat": "30.6456174023423",
	"lon": "-96.3565772144345"
}, {
	"name": "Buppy’s",
	"streetAddress": "4150 S State Hwy 6",
	"city": "Bryan",
	"state": "TX",
	"zip": "77802",
	"rating": "1.0",
	"reviews": "1",
	"price": 0,
	"type": "Buffets",
	"lat": "30.6505130274225",
	"lon": "-96.3182442590341"
}, {
	"name": "Sweets and Eats Bakery",
	"streetAddress": "3141 Briarcrest Dr",
	"city": "Bryan",
	"state": "TX",
	"zip": "77802",
	"rating": "4.5",
	"reviews": "11",
	"price": 2,
	"type": "Desserts, Bakeries, Cupcakes",
	"lat": "30.6669093723311",
	"lon": "-96.3246266171016"
}, {
	"name": "Texas 21 Saloon",
	"streetAddress": "5809 Hwy 21 E",
	"city": "Bryan",
	"state": "TX",
	"zip": "77808",
	"rating": "null",
	"reviews": "null",
	"price": 0,
	"type": "Bars, Burgers",
	"lat": "30.7108735840076",
	"lon": "-96.3459188009766"
}, {
	"name": "Burger King",
	"streetAddress": "2901 E 29th St",
	"city": "Bryan",
	"state": "TX",
	"zip": "77802",
	"rating": "null",
	"reviews": "null",
	"price": 0,
	"type": "Fast Food, Burgers",
	"lat": "30.6564509928386",
	"lon": "-96.3433287231999"
}, {
	"name": "Tere’s Taqueria",
	"streetAddress": "890 N Harvey Mitchell",
	"city": "Bryan",
	"state": "TX",
	"zip": "77807",
	"rating": "null",
	"reviews": "null",
	"price": 2,
	"type": "Mexican",
	"lat": "30.6440048390081",
	"lon": "-96.3875200997025"
}, {
	"name": "El Taconazo Taco Truck",
	"streetAddress": "3510 S. College Avenue",
	"city": "Bryan",
	"state": "TX",
	"zip": "77801",
	"rating": "4.0",
	"reviews": "1",
	"price": 0,
	"type": "Mexican, Food Stands, Ethnic Food",
	"lat": "30.6353351969294",
	"lon": "-96.3550989593279"
}, {
	"name": "Burger King",
	"streetAddress": "2802 Hwy 21 E",
	"city": "Bryan",
	"state": "TX",
	"zip": "77803",
	"rating": "2.0",
	"reviews": "2",
	"price": 1,
	"type": "Fast Food, Burgers",
	"lat": "30.6944249235609",
	"lon": "-96.3624396621019"
}, {
	"name": "Cotton Patch Cafe",
	"streetAddress": "3525-A Longmire Dr",
	"city": "Bryan",
	"state": "TX",
	"zip": "77801",
	"rating": "null",
	"reviews": "null",
	"price": 0,
	"type": "Steakhouses, American (Traditional)",
	"lat": "30.88972",
	"lon": "-96.29445"
}, {
	"name": "EL TIO Restaurant & GRILL",
	"streetAddress": "1305 W Wm J Bryan Pkwy Ste 500",
	"city": "Bryan",
	"state": "TX",
	"zip": "77803",
	"rating": "null",
	"reviews": "null",
	"price": 0,
	"type": "Restaurants",
	"lat": "30.675746413029",
	"lon": "-96.3865770513773"
}, {
	"name": "JJ’s Snowcones",
	"streetAddress": "1112 Briarcrest Dr",
	"city": "Bryan",
	"state": "TX",
	"zip": "77802",
	"rating": "4.5",
	"reviews": "9",
	"price": 1,
	"type": "Shaved Ice",
	"lat": "30.649599560327",
	"lon": "-96.3475894118572"
}, {
	"name": "Taqueria San Luis",
	"streetAddress": "1305 William Joel Bryan Pkwy",
	"city": "Bryan",
	"state": "TX",
	"zip": "77803",
	"rating": "null",
	"reviews": "null",
	"price": 0,
	"type": "Mexican",
	"lat": "30.681235",
	"lon": "-96.376593"
}, {
	"name": "Cake Junkie",
	"streetAddress": "4001 E 29th St",
	"city": "Bryan",
	"state": "TX",
	"zip": "77802",
	"rating": "3.5",
	"reviews": "16",
	"price": 3,
	"type": "Bakeries, Desserts",
	"lat": "30.6461983700241",
	"lon": "-96.3320261711394"
}, {
	"name": "Chick’s",
	"streetAddress": "600 N Earl Rudder Fwy",
	"city": "Bryan",
	"state": "TX",
	"zip": "77802",
	"rating": "4.0",
	"reviews": "10",
	"price": 2,
	"type": "Gas & Service Stations, Convenience Stores",
	"lat": "30.6915651555973",
	"lon": "-96.3522584504654"
}, {
	"name": "Taco Bell",
	"streetAddress": "3501 East 29th Street",
	"city": "Bryan",
	"state": "TX",
	"zip": "77802",
	"rating": "1.5",
	"reviews": "3",
	"price": 1,
	"type": "Mexican, Fast Food, Tex-Mex",
	"lat": "30.652242586003",
	"lon": "-96.335162417224"
}, {
	"name": "Taylor Made Gluten Free Bakery",
	"streetAddress": "2606 S Texas Ave",
	"city": "Bryan",
	"state": "TX",
	"zip": "77802",
	"rating": "5.0",
	"reviews": "3",
	"price": 2,
	"type": "Bakeries",
	"lat": "30.6461938581159",
	"lon": "-96.3572597158722"
}, {
	"name": "Aggiefood",
	"streetAddress": "null",
	"city": "null",
	"state": "null",
	"zip": "null",
	"rating": "3.5",
	"reviews": "13",
	"price": 2,
	"type": "Food Delivery Services",
	"lat": "null",
	"lon": "null"
}, {
	"name": "La Jefa de Jefas",
	"streetAddress": "1910 La Brisa Dr",
	"city": "Bryan",
	"state": "TX",
	"zip": "77807",
	"rating": "null",
	"reviews": "null",
	"price": 0,
	"type": "Mexican",
	"lat": "30.6254232363943",
	"lon": "-96.3777473568201"
}, {
	"name": "Jack in the Box",
	"streetAddress": "900 N Earl Rudder Fwy",
	"city": "Bryan",
	"state": "TX",
	"zip": "77802",
	"rating": "1.5",
	"reviews": "6",
	"price": 1,
	"type": "Fast Food",
	"lat": "30.6727071476077",
	"lon": "-96.3366124782244"
}, {
	"name": "Corner Of Time",
	"streetAddress": "118 N Bryan Ave",
	"city": "Bryan",
	"state": "TX",
	"zip": "77803",
	"rating": "4.0",
	"reviews": "6",
	"price": 1,
	"type": "Antiques, Auction Houses, Ice Cream & Frozen Yogurt",
	"lat": "30.6745607904281",
	"lon": "-96.3742921007262"
}, {
	"name": "Subway",
	"streetAddress": "643 N Harvey Mitchell Pkwy",
	"city": "Bryan",
	"state": "TX",
	"zip": "77807",
	"rating": "3.0",
	"reviews": "1",
	"price": 0,
	"type": "Sandwiches, Fast Food",
	"lat": "30.6328646524038",
	"lon": "-96.3820875947055"
}, {
	"name": "The Chocolate Gallery",
	"streetAddress": "211 N Main St",
	"city": "Bryan",
	"state": "TX",
	"zip": "77803",
	"rating": "3.5",
	"reviews": "14",
	"price": 2,
	"type": "Gelato, Chocolatiers & Shops, Cupcakes",
	"lat": "30.6751385619904",
	"lon": "-96.3727403349737"
}, {
	"name": "Dairy Queen",
	"streetAddress": "3003 Hwy 21 E",
	"city": "Bryan",
	"state": "TX",
	"zip": "77803",
	"rating": "1.5",
	"reviews": "4",
	"price": 0,
	"type": "Fast Food, Ice Cream & Frozen Yogurt",
	"lat": "30.6952876818948",
	"lon": "-96.3607007587945"
}, {
	"name": "Maggies Place",
	"streetAddress": "2208 Finfeather Rd",
	"city": "Bryan",
	"state": "TX",
	"zip": "77801",
	"rating": "null",
	"reviews": "null",
	"price": 0,
	"type": "Delis",
	"lat": "30.645078708608",
	"lon": "-96.3760507575523"
}, {
	"name": "Village Foods & PharmacyFoods",
	"streetAddress": "3030 E 29th St",
	"city": "Bryan",
	"state": "TX",
	"zip": "77802",
	"rating": "4.5",
	"reviews": "3",
	"price": 2,
	"type": "Grocery, Health Markets, Drugstores",
	"lat": "30.6552923363672",
	"lon": "-96.3418961526714"
}, {
	"name": "Fire & Ice",
	"streetAddress": "2084 E 29th St",
	"city": "Bryan",
	"state": "TX",
	"zip": "77802",
	"rating": "4.5",
	"reviews": "3",
	"price": 1,
	"type": "Coffee & Tea, Ice Cream & Frozen Yogurt, Desserts",
	"lat": "30.6589792338933",
	"lon": "-96.3526289430441"
}, {
	"name": "Holy Smokes Bbq & Catering",
	"streetAddress": "null",
	"city": "Bryan",
	"state": "TX",
	"rating": "null",
	"reviews": "null",
	"price": 0,
	"type": "Barbeque",
	"lat": "null",
	"lon": "null"
}, {
	"name": "Hillcrest grocery Taqueria",
	"streetAddress": "2001 S College Main",
	"city": "Bryan",
	"state": "TX",
	"zip": "77801",
	"rating": "null",
	"reviews": "null",
	"price": 0,
	"type": "Mexican",
	"lat": "30.88972",
	"lon": "-96.29445"
}, {
	"name": "Mi Cocina Restaurant",
	"streetAddress": "1601 N Sims Ave",
	"city": "Bryan",
	"state": "TX",
	"zip": "77803",
	"rating": "null",
	"reviews": "null",
	"price": 0,
	"type": "Mexican",
	"lat": "30.6878150677241",
	"lon": "-96.3738198777892"
}, {
	"name": "McDonald’s",
	"streetAddress": "2420 N Texas Ave",
	"city": "Bryan",
	"state": "TX",
	"zip": "77803",
	"rating": "null",
	"reviews": "null",
	"price": 0,
	"type": "Burgers, Fast Food",
	"lat": "30.607374744788",
	"lon": "-96.3098087968897"
}, {
	"name": "Smith Dairy Queen",
	"streetAddress": "3833 S Texas Ave Ste 276",
	"city": "Bryan",
	"state": "TX",
	"zip": "77802",
	"rating": "null",
	"reviews": "null",
	"price": 0,
	"type": "Restaurants",
	"lat": "30.6363080173918",
	"lon": "-96.343637987056"
}, {
	"name": "Wings and More",
	"streetAddress": "3404 Hwy 21 E",
	"city": "Bryan",
	"state": "TX",
	"zip": "77808",
	"rating": "null",
	"reviews": "null",
	"price": 0,
	"type": "Chicken Wings",
	"lat": "30.6971587355868",
	"lon": "-96.3581448810455"
}, {
	"name": "El Toro Cafe",
	"streetAddress": "500 N Sims Ave",
	"city": "Bryan",
	"state": "TX",
	"zip": "77803",
	"rating": "null",
	"reviews": "null",
	"price": 0,
	"type": "Restaurants",
	"lat": "30.6779973429532",
	"lon": "-96.3759836119394"
}, {
	"name": "Blimpie Sub Sandwiches",
	"streetAddress": "3200 Fm Rd",
	"city": "Bryan",
	"state": "TX",
	"zip": "77802",
	"rating": "null",
	"reviews": "null",
	"price": 0,
	"type": "Sandwiches",
	"lat": "30.660096",
	"lon": "-96.332343"
}, {
	"name": "R K Garner High Pressure",
	"streetAddress": "2506 Rustling Oaks Dr",
	"city": "Bryan",
	"state": "TX",
	"zip": "77802",
	"rating": "null",
	"reviews": "null",
	"price": 0,
	"type": "Restaurants",
	"lat": "30.6635013832564",
	"lon": "-96.3471712119503"
}, {
	"name": "Mari’s Taqueria",
	"streetAddress": "2714 W Hwy 21",
	"city": "Bryan",
	"state": "TX",
	"zip": "77803",
	"rating": "null",
	"reviews": "null",
	"price": 0,
	"type": "Mexican",
	"lat": "30.670445546083",
	"lon": "-96.4029749379906"
}, {
	"name": "Edo Japan",
	"streetAddress": "5000 Emerald Greens Dr",
	"city": "Bryan",
	"state": "TX",
	"zip": "77802",
	"rating": "null",
	"reviews": "null",
	"price": 0,
	"type": "Japanese",
	"lat": "30.660096",
	"lon": "-96.332343"
}, {
	"name": "Mr Gatti’s",
	"streetAddress": "1673 Briarcrest Dr",
	"city": "Bryan",
	"state": "TX",
	"zip": "77802",
	"rating": "null",
	"reviews": "null",
	"price": 0,
	"type": "Pizza",
	"lat": "30.6519074617489",
	"lon": "-96.3413898563038"
}, {
	"name": "La Mexicana",
	"streetAddress": "808 W Wm J Bryan Pkwy",
	"city": "Bryan",
	"state": "TX",
	"zip": "77803",
	"rating": "null",
	"reviews": "null",
	"price": 0,
	"type": "Mexican",
	"lat": "30.6757816590014",
	"lon": "-96.3810541848821"
}, {
	"name": "Red Lobster",
	"streetAddress": "1800 Cavitt Ave",
	"city": "Bryan",
	"state": "TX",
	"zip": "77801",
	"rating": "null",
	"reviews": "null",
	"price": 0,
	"type": "Seafood",
	"lat": "30.6534837358673",
	"lon": "-96.3662879509536"
}, {
	"name": "Subway",
	"streetAddress": "3300 S Texas Ave",
	"city": "Bryan",
	"state": "TX",
	"zip": "77802",
	"rating": "null",
	"reviews": "null",
	"price": 0,
	"type": "Sandwiches, Fast Food",
	"lat": "30.6404990901349",
	"lon": "-96.3503266516886"
}, {
	"name": "Tere’s Taqueria",
	"streetAddress": "9212 State Highway 21",
	"city": "Bryan",
	"state": "TX",
	"zip": "77807",
	"rating": "null",
	"reviews": "null",
	"price": 0,
	"type": "Mexican",
	"lat": "30.6468771683729",
	"lon": "-96.4904476422544"
}, {
	"name": "Hampton’s Cafe",
	"streetAddress": "2516 S Texas Ave",
	"city": "Bryan",
	"state": "TX",
	"zip": "77802",
	"rating": "null",
	"reviews": "null",
	"price": 0,
	"type": "Restaurants",
	"lat": "30.6467703135037",
	"lon": "-96.35794221228"
}, {
	"name": "Nipa Hot",
	"streetAddress": "405 Univ Dr W",
	"city": "Bryan",
	"state": "TX",
	"zip": "77801",
	"rating": "null",
	"reviews": "null",
	"price": 0,
	"type": "Restaurants",
	"lat": "30.88972",
	"lon": "-96.29445"
}, {
	"name": "Crow’s Bar-bq-hut",
	"streetAddress": "905 San Jacinto Ln",
	"city": "Bryan",
	"state": "TX",
	"zip": "77803",
	"rating": "null",
	"reviews": "null",
	"price": 0,
	"type": "Barbeque",
	"lat": "30.6836782278022",
	"lon": "-96.3810934012083"
}, {
	"name": "Louisiana Style Bar-b-que",
	"streetAddress": "1220 N Texas Ave",
	"city": "Bryan",
	"state": "TX",
	"zip": "77803",
	"rating": "null",
	"reviews": "null",
	"price": 0,
	"type": "Barbeque",
	"lat": "30.6845497077318",
	"lon": "-96.3701669578958"
}, {
	"name": "Little Caesars Pizza",
	"streetAddress": "3141 Briarcrest Dr",
	"city": "Bryan",
	"state": "TX",
	"zip": "77802",
	"rating": "null",
	"reviews": "null",
	"price": 0,
	"type": "Pizza",
	"lat": "30.6669093723311",
	"lon": "-96.3246266171016"
}, {
	"name": "Tacos Frescas",
	"streetAddress": "3401 Texas 21",
	"city": "Bryan",
	"state": "TX",
	"zip": "77803",
	"rating": "null",
	"reviews": "null",
	"price": 0,
	"type": "Mexican",
	"lat": "30.681235",
	"lon": "-96.376593"
}, {
	"name": "Long John Silver Seafood Shoppe No 5347",
	"streetAddress": "1808 S Texas Ave",
	"city": "Bryan",
	"state": "TX",
	"zip": "77802",
	"rating": "null",
	"reviews": "null",
	"price": 0,
	"type": "Restaurants",
	"lat": "30.6139011937781",
	"lon": "-96.318366724728"
}, {
	"name": "Texas State Of -Sen Ogden",
	"streetAddress": "3740 Copperfield Dr",
	"city": "Bryan",
	"state": "TX",
	"zip": "77802",
	"rating": "null",
	"reviews": "null",
	"price": 0,
	"type": "Restaurants",
	"lat": "30.652123888665",
	"lon": "-96.2965761944827"
}, {
	"name": "Tommy’s Drive In",
	"streetAddress": "1520 W 28th St",
	"city": "Bryan",
	"state": "TX",
	"zip": "77803",
	"rating": "null",
	"reviews": "null",
	"price": 0,
	"type": "Grocery, Restaurants",
	"lat": "30.6702965786837",
	"lon": "-96.3895527412685"
}, {
	"name": "Food Group VenturesFood",
	"streetAddress": "1862 Greenfield Plz",
	"city": "Bryan",
	"state": "TX",
	"zip": "77802",
	"rating": "null",
	"reviews": "null",
	"price": 0,
	"type": "Restaurants",
	"lat": "30.6511154214538",
	"lon": "-96.3344800042845"
}, {
	"name": "Dixie Chicken",
	"streetAddress": "3606 S College Ave",
	"city": "Bryan",
	"state": "TX",
	"zip": "77801",
	"rating": "null",
	"reviews": "null",
	"price": 0,
	"type": "Restaurants",
	"lat": "30.6337854907447",
	"lon": "-96.3539275990694"
}, {
	"name": "Fish ‘N More",
	"streetAddress": "3105 S Texas Ave",
	"city": "Bryan",
	"state": "TX",
	"zip": "77802",
	"rating": "null",
	"reviews": "null",
	"price": 0,
	"type": "Seafood",
	"lat": "30.6436416369567",
	"lon": "-96.3533378292398"
}, {
	"name": "MARIA’S TAMALE FACTORY",
	"streetAddress": "403 Eden Ln",
	"city": "Bryan",
	"state": "TX",
	"zip": "77803",
	"rating": "null",
	"reviews": "null",
	"price": 0,
	"type": "Mexican",
	"lat": "30.6605312185538",
	"lon": "-96.375661806535"
}, {
	"name": "Billar El Tapatio",
	"streetAddress": "502 W Wm J Bryan Pkwy",
	"city": "Bryan",
	"state": "TX",
	"zip": "77803",
	"rating": "null",
	"reviews": "null",
	"price": 0,
	"type": "Pool Halls, Restaurants",
	"lat": "30.6754904385118",
	"lon": "-96.377606724971"
}, {
	"name": "Subway",
	"streetAddress": "3501 E 29th St",
	"city": "Bryan",
	"state": "TX",
	"zip": "77802",
	"rating": "null",
	"reviews": "null",
	"price": 0,
	"type": "Sandwiches, Fast Food",
	"lat": "30.652242586003",
	"lon": "-96.335162417224"
}, {
	"name": "China Wok Restaurant",
	"streetAddress": "1505B S Texas Ave",
	"city": "Bryan",
	"state": "TX",
	"zip": "77802",
	"rating": "null",
	"reviews": "null",
	"price": 0,
	"type": "Chinese",
	"lat": "30.6180198686672",
	"lon": "-96.320261448534"
}, {
	"name": "Bubba’s Bar & BBQ",
	"streetAddress": "905 San Jacinto Ln",
	"city": "Bryan",
	"state": "TX",
	"zip": "77803",
	"rating": "null",
	"reviews": "null",
	"price": 0,
	"type": "Barbeque",
	"lat": "30.6836782278022",
	"lon": "-96.3810934012083"
}, {
	"name": "Papa Murphys Take N Bake",
	"streetAddress": "725 E Villa Maria Rd",
	"city": "Bryan",
	"state": "TX",
	"zip": "77802",
	"rating": "null",
	"reviews": "null",
	"price": 0,
	"type": "Pizza",
	"lat": "30.6438033925059",
	"lon": "-96.3513816549488"
}, {
	"name": "Little Caesar’s Office",
	"streetAddress": "1775 Briarcrest Dr",
	"city": "Bryan",
	"state": "TX",
	"zip": "77802",
	"rating": "null",
	"reviews": "null",
	"price": 0,
	"type": "Pizza",
	"lat": "30.6543586954513",
	"lon": "-96.3376210823859"
}, {
	"name": "Church’s Chicken",
	"streetAddress": "507 N Texas Ave",
	"city": "Bryan",
	"state": "TX",
	"zip": "77803",
	"rating": "null",
	"reviews": "null",
	"price": 0,
	"type": "Fast Food",
	"lat": "30.6776483684848",
	"lon": "-96.3691886645545"
}, {
	"name": "Elena’s Bar-N-Grill",
	"streetAddress": "5809 E State Highway 21",
	"city": "Bryan",
	"state": "TX",
	"zip": "77808",
	"rating": "null",
	"reviews": "null",
	"price": 0,
	"type": "Restaurants",
	"lat": "30.7108735840076",
	"lon": "-96.3459188009766"
}, {
	"name": "La Familia",
	"streetAddress": "3702 S Texas Ave",
	"city": "Bryan",
	"state": "TX",
	"zip": "77802",
	"rating": "null",
	"reviews": "null",
	"price": 0,
	"type": "Mexican",
	"lat": "30.6379307183131",
	"lon": "-96.3469752682528"
}, {
	"name": "Chick-fil-A",
	"streetAddress": "Post Oak Mall",
	"city": "Bryan",
	"state": "TX",
	"zip": "77801",
	"rating": "null",
	"reviews": "null",
	"price": 0,
	"type": "Fast Food",
	"lat": "30.88972",
	"lon": "-96.29445"
}, {
	"name": "Blackwater Draw Brewing",
	"streetAddress": "701 N Main",
	"city": "Bryan",
	"state": "TX",
	"zip": "77803",
	"rating": "5.0",
	"reviews": "2",
	"price": 0,
	"type": "Breweries",
	"lat": "30.679508720321",
	"lon": "-96.3722982237875"
}, {
	"name": "Daylight Donuts",
	"streetAddress": "4248 Boonville Rd",
	"city": "Bryan",
	"state": "TX",
	"zip": "77802",
	"rating": "5.0",
	"reviews": "3",
	"price": 1,
	"type": "Donuts",
	"lat": "30.6624110990864",
	"lon": "-96.3047018084068"
}, {
	"name": "Brazos Natural FoodsFoods",
	"streetAddress": "4303 S Texas Ave",
	"city": "Bryan",
	"state": "TX",
	"zip": "77802",
	"rating": "4.0",
	"reviews": "9",
	"price": 2,
	"type": "Health Markets, Grocery",
	"lat": "30.6335675326218",
	"lon": "-96.3415430736009"
}, {
	"name": "Ed’s Butcher Block",
	"streetAddress": "600 N Texas Ave",
	"city": "Bryan",
	"state": "TX",
	"zip": "77803",
	"rating": "4.5",
	"reviews": "6",
	"price": 2,
	"type": "Meat Shops",
	"lat": "30.6783224571484",
	"lon": "-96.3697686768364"
}, {
	"name": "La Michoacana Meat Market",
	"streetAddress": "1322 S Texas Ave",
	"city": "Bryan",
	"state": "TX",
	"zip": "77803",
	"rating": "4.5",
	"reviews": "14",
	"price": 1,
	"type": "Grocery, Meat Shops",
	"lat": "30.65830734264",
	"lon": "-96.3701233476517"
}, {
	"name": "Oriental Market",
	"streetAddress": "3409 S Texas Ave",
	"city": "Bryan",
	"state": "TX",
	"zip": "77802",
	"rating": "4.5",
	"reviews": "4",
	"price": 2,
	"type": "Ethnic Food, Grocery",
	"lat": "30.6399877030861",
	"lon": "-96.3486041094144"
}, {
	"name": "Spoons Yogurt",
	"streetAddress": "2305 Boonville Rd",
	"city": "Bryan",
	"state": "TX",
	"zip": "77808",
	"rating": "3.5",
	"reviews": "8",
	"price": 1,
	"type": "Desserts, Ice Cream & Frozen Yogurt",
	"lat": "30.6734953163375",
	"lon": "-96.3352739736264"
}, {
	"name": "La Perla Tapatia Meat Market",
	"streetAddress": "510 W Wm J Bryan Pkwy",
	"city": "Bryan",
	"state": "TX",
	"zip": "77803",
	"rating": "4.5",
	"reviews": "3",
	"price": 2,
	"type": "Meat Shops",
	"lat": "30.6751977234878",
	"lon": "-96.377237120335"
}, {
	"name": "Shipley Do-Nuts",
	"streetAddress": "3001 Wildflower Dr",
	"city": "Bryan",
	"state": "TX",
	"zip": "77802",
	"rating": "3.0",
	"reviews": "5",
	"price": 1,
	"type": "Donuts",
	"lat": "30.660096",
	"lon": "-96.332343"
}, {
	"name": "Kroger",
	"streetAddress": "2303 Boonville Rd",
	"city": "Bryan",
	"state": "TX",
	"zip": "77802",
	"rating": "4.0",
	"reviews": "8",
	"price": 2,
	"type": "Grocery",
	"lat": "30.6739684329084",
	"lon": "-96.3362142582888"
}, {
	"name": "Mini Mart",
	"streetAddress": "3800 S College Rd",
	"city": "Bryan",
	"state": "TX",
	"zip": "77801",
	"rating": "4.0",
	"reviews": "3",
	"price": 2,
	"type": "Convenience Stores, Grocery, Ethnic Food",
	"lat": "30.6319934345477",
	"lon": "-96.3520803669036"
}, {
	"name": "Whiskey Charlie’s",
	"streetAddress": "3601 E 29th St",
	"city": "Bryan",
	"state": "TX",
	"zip": "77802",
	"rating": "4.0",
	"reviews": "2",
	"price": 0,
	"type": "Beer, Wine & Spirits",
	"lat": "30.6506278243299",
	"lon": "-96.3345735944345"
}, {
	"name": "Exxon",
	"streetAddress": "600 N Earl Rudder Fwy",
	"city": "Bryan",
	"state": "TX",
	"zip": "77808",
	"rating": "4.0",
	"reviews": "2",
	"price": 1,
	"type": "Gas & Service Stations, Convenience Stores",
	"lat": "30.6915651555973",
	"lon": "-96.3522584504654"
}, {
	"name": "Starbucks",
	"streetAddress": "2303 Boonville Rd",
	"city": "Bryan",
	"state": "TX",
	"zip": "77808",
	"rating": "3.5",
	"reviews": "3",
	"price": 1,
	"type": "Coffee & Tea",
	"lat": "30.6739684329084",
	"lon": "-96.3362142582888"
}, {
	"name": "Morgan Fitzgerald’s",
	"streetAddress": "3800 S Texas Ave",
	"city": "Bryan",
	"state": "TX",
	"zip": "77802",
	"rating": "3.5",
	"reviews": "3",
	"price": 3,
	"type": "Cosmetics & Beauty Supply, Specialty Food, Women's Clothing",
	"lat": "30.6369107334009",
	"lon": "-96.3462975918535"
}, {
	"name": "Filipiniana Asian Emporium",
	"streetAddress": "3737 E 29th St",
	"city": "Bryan",
	"state": "TX",
	"zip": "77802",
	"rating": "3.5",
	"reviews": "3",
	"price": 1,
	"type": "Grocery, Ethnic Food",
	"lat": "30.6486770870217",
	"lon": "-96.3341859479011"
}, {
	"name": "Juice Colors",
	"streetAddress": "2107 S College Ave",
	"city": "Bryan",
	"state": "TX",
	"zip": "77801",
	"rating": "5.0",
	"reviews": "1",
	"price": 1,
	"type": "Juice Bars & Smoothies",
	"lat": "30.6494810792423",
	"lon": "-96.3652407824325"
}, {
	"name": "Premiere Market",
	"streetAddress": "5827 Leonard Rd",
	"city": "Bryan",
	"state": "TX",
	"zip": "77807",
	"rating": "5.0",
	"reviews": "1",
	"price": 0,
	"type": "Accessories, Grocery, Home & Garden",
	"lat": "30.6217194416514",
	"lon": "-96.4160267797518"
}, {
	"name": "Space Am Beverage",
	"streetAddress": "461 N Harvey Mitchell Pkwy",
	"city": "Bryan",
	"state": "TX",
	"zip": "77807",
	"rating": "5.0",
	"reviews": "1",
	"price": 0,
	"type": "Beer, Wine & Spirits",
	"lat": "30.6299319588842",
	"lon": "-96.377901721394"
}, {
	"name": "Kristen Distributing Co",
	"streetAddress": "1501 Independence Ave",
	"city": "Bryan",
	"state": "TX",
	"zip": "77803",
	"rating": "5.0",
	"reviews": "1",
	"price": 1,
	"type": "Beer, Wine & Spirits",
	"lat": "30.6595923137958",
	"lon": "-96.4078432419527"
}, {
	"name": "C & L Nut Company",
	"streetAddress": "2806 Finfeather Rd",
	"city": "Bryan",
	"state": "TX",
	"zip": "77801",
	"rating": "5.0",
	"reviews": "1",
	"price": 0,
	"type": "Specialty Food",
	"lat": "30.6386304353529",
	"lon": "-96.3703471396638"
}, {
	"name": "Cafe Laurence",
	"streetAddress": "419 N Main St",
	"city": "Bryan",
	"state": "TX",
	"zip": "77803",
	"rating": "5.0",
	"reviews": "2",
	"price": 0,
	"type": "Coffee & Tea",
	"lat": "30.6769595347541",
	"lon": "-96.3725882520521"
}, {
	"name": "Lampo’s Grocery Exxon",
	"streetAddress": "4311 N Texas Ave.",
	"city": "Bryan",
	"state": "TX",
	"zip": "77803",
	"rating": "3.0",
	"reviews": "1",
	"price": 0,
	"type": "Gas & Service Stations, Convenience Stores",
	"lat": "30.7067800166569",
	"lon": "-96.3966757606351"
}, {
	"name": "Bryan Food XchangeFood",
	"streetAddress": "2907 Hwy 21 E",
	"city": "Bryan",
	"state": "TX",
	"zip": "77803",
	"rating": "4.0",
	"reviews": "2",
	"price": 0,
	"type": "Convenience Stores",
	"lat": "30.6947291008995",
	"lon": "-96.3615925929366"
}, {
	"name": "Scarmardo Produce",
	"streetAddress": "1289 N Harvey Mitchell Pkwy",
	"city": "Bryan",
	"state": "TX",
	"zip": "77803",
	"rating": "5.0",
	"reviews": "1",
	"price": 0,
	"type": "Fruits & Veggies",
	"lat": "30.6505433416065",
	"lon": "-96.4000935099612"
}, {
	"name": "Brazos Valley Farmers’ Market",
	"streetAddress": "1760 Briarcrest Drive",
	"city": "Bryan",
	"state": "TX",
	"zip": "77802",
	"rating": "5.0",
	"reviews": "1",
	"price": 0,
	"type": "Farmers Market",
	"lat": "30.6534441486154",
	"lon": "-96.3370834414614"
}, {
	"name": "Dairy Queen",
	"streetAddress": "3507 E 29th St",
	"city": "Bryan",
	"state": "TX",
	"zip": "77802",
	"rating": "3.0",
	"reviews": "4",
	"price": 3,
	"type": "Ice Cream & Frozen Yogurt",
	"lat": "30.6514150155799",
	"lon": "-96.3349449857265"
}, {
	"name": "H-E-B",
	"streetAddress": "725 E Villa Maria Rd",
	"city": "Bryan",
	"state": "TX",
	"zip": "77802",
	"rating": "2.0",
	"reviews": "10",
	"price": 1,
	"type": "Grocery, Drugstores",
	"lat": "30.6438033925059",
	"lon": "-96.3513816549488"
}, {
	"name": "Walmart Supercenter",
	"streetAddress": "643 N Harvey Mitchell Parkway",
	"city": "Bryan",
	"state": "TX",
	"zip": "77807",
	"rating": "3.5",
	"reviews": "5",
	"price": 1,
	"type": "Grocery, Department Stores",
	"lat": "30.6328646524038",
	"lon": "-96.3820875947055"
}, {
	"name": "Double Quick",
	"streetAddress": "4501 Wellborn Rd",
	"city": "Bryan",
	"state": "TX",
	"zip": "77801",
	"rating": "3.5",
	"reviews": "2",
	"price": 0,
	"type": "Convenience Stores",
	"lat": "30.6203976146099",
	"lon": "-96.3521587269179"
}, {
	"name": "Shipley DO-Nut Shops",
	"streetAddress": "210 E Villa Maria Rd",
	"city": "Bryan",
	"state": "TX",
	"zip": "77801",
	"rating": "2.5",
	"reviews": "10",
	"price": 1,
	"type": "Donuts",
	"lat": "30.6411611129558",
	"lon": "-96.3562317388553"
}, {
	"name": "Western Beverages",
	"streetAddress": "2305 Boonville Rd.",
	"city": "Bryan",
	"state": "TX",
	"zip": "77802",
	"rating": "2.5",
	"reviews": "3",
	"price": 1,
	"type": "Beer, Wine & Spirits",
	"lat": "30.6734953163375",
	"lon": "-96.3352739736264"
}, {
	"name": "Starbucks",
	"streetAddress": "3061 Wildflower Dr",
	"city": "Bryan",
	"state": "TX",
	"zip": "77802",
	"rating": "3.0",
	"reviews": "2",
	"price": 2,
	"type": "Coffee & Tea",
	"lat": "30.660096",
	"lon": "-96.332343"
}, {
	"name": "La Michoacana Meat Market",
	"streetAddress": "2001 East Hwy 21",
	"city": "Bryan",
	"state": "TX",
	"zip": "77803",
	"rating": "4.0",
	"reviews": "1",
	"price": 2,
	"type": "Grocery, Meat Shops",
	"lat": "30.6899758507636",
	"lon": "-96.3693530006237"
}, {
	"name": "Big’s 108",
	"streetAddress": "4301 Boonville Rd",
	"city": "Bryan",
	"state": "TX",
	"zip": "77802",
	"rating": "4.0",
	"reviews": "1",
	"price": 0,
	"type": "Convenience Stores",
	"lat": "30.6622467647487",
	"lon": "-96.3015932083324"
}, {
	"name": "Walmart Supercenter",
	"streetAddress": "2200 Briarcrest Dr",
	"city": "Bryan",
	"state": "TX",
	"zip": "77802",
	"rating": "2.5",
	"reviews": "4",
	"price": 1,
	"type": "Department Stores, Grocery",
	"lat": "30.6593574074913",
	"lon": "-96.3311935765372"
}, {
	"name": "Super Donuts 5",
	"streetAddress": "1612 W Villa Maria Rd",
	"city": "Bryan",
	"state": "TX",
	"zip": "77801",
	"rating": "3.5",
	"reviews": "4",
	"price": 1,
	"type": "Donuts",
	"lat": "30.6516894451622",
	"lon": "-96.3481955060768"
}, {
	"name": "Taqueria Regiomontana",
	"streetAddress": "2100 S College Main",
	"city": "Bryan",
	"state": "TX",
	"zip": "77801",
	"rating": "4.0",
	"reviews": "1",
	"price": 0,
	"type": "Ethnic Food",
	"lat": "30.88972",
	"lon": "-96.29445"
}, {
	"name": "I Stop Convenience Store",
	"streetAddress": "4405 College Main St",
	"city": "Bryan",
	"state": "TX",
	"zip": "77801",
	"rating": "3.0",
	"reviews": "2",
	"price": 2,
	"type": "Tobacco Shops, Convenience Stores",
	"lat": "30.6232229288352",
	"lon": "-96.3502644491023"
}, {
	"name": "H-E-B",
	"streetAddress": "1905 Old Hearne Rd",
	"city": "Bryan",
	"state": "TX",
	"zip": "77803",
	"rating": "2.5",
	"reviews": "2",
	"price": 2,
	"type": "Grocery",
	"lat": "30.6903869869876",
	"lon": "-96.3728683560731"
}, {
	"name": "Donald Donuts",
	"streetAddress": "3308 E 29th St",
	"city": "Bryan",
	"state": "TX",
	"zip": "77802",
	"rating": "3.5",
	"reviews": "3",
	"price": 2,
	"type": "Donuts",
	"lat": "30.6557013279567",
	"lon": "-96.3381105122952"
}, {
	"name": "Easy Shop",
	"streetAddress": "3510 S College Ave",
	"city": "Bryan",
	"state": "TX",
	"zip": "77801",
	"rating": "3.0",
	"reviews": "1",
	"price": 0,
	"type": "Convenience Stores",
	"lat": "30.6353351969294",
	"lon": "-96.3550989593279"
}, {
	"name": "Exxon Express Mart",
	"streetAddress": "505 N Harvey Mitchell Pkwy",
	"city": "Bryan",
	"state": "TX",
	"zip": "77807",
	"rating": "3.0",
	"reviews": "1",
	"price": 0,
	"type": "Convenience Stores",
	"lat": "30.6330232834912",
	"lon": "-96.3780185763443"
}, {
	"name": "Valero",
	"streetAddress": "4609 E 29th St",
	"city": "Bryan",
	"state": "TX",
	"zip": "77802",
	"rating": "3.0",
	"reviews": "1",
	"price": 0,
	"type": "Gas & Service Stations, Convenience Stores",
	"lat": "30.640606231551",
	"lon": "-96.3281869672533"
}, {
	"name": "El Ahorro Supermarket",
	"streetAddress": "2001 East Hwy 21",
	"city": "Bryan",
	"state": "TX",
	"zip": "77803",
	"rating": "3.0",
	"reviews": "1",
	"price": 1,
	"type": "Grocery",
	"lat": "30.6899758507636",
	"lon": "-96.3693530006237"
}, {
	"name": "My Cupcakery",
	"streetAddress": "1003 South Texas Ave",
	"city": "Bryan",
	"state": "TX",
	"zip": "77803",
	"rating": "3.0",
	"reviews": "1",
	"price": 2,
	"type": "Cupcakes",
	"lat": "30.6628017554039",
	"lon": "-96.3711918635322"
}, {
	"name": "Sunrise Food MartFood",
	"streetAddress": "5103 Leonard Rd",
	"city": "Bryan",
	"state": "TX",
	"zip": "77807",
	"rating": "3.0",
	"reviews": "1",
	"price": 1,
	"type": "Convenience Stores",
	"lat": "30.6312812055604",
	"lon": "-96.4091980068177"
}, {
	"name": "Easy Shop No 3",
	"streetAddress": "1910 Labrisa Dr",
	"city": "Bryan",
	"state": "TX",
	"zip": "77807",
	"rating": "3.0",
	"reviews": "1",
	"price": 0,
	"type": "Convenience Stores",
	"lat": "30.6254232363943",
	"lon": "-96.3777473568201"
}, {
	"name": "H-E-B Start Fresh Tour Truck",
	"streetAddress": "725 E Villa Maria Rd",
	"city": "Bryan",
	"state": "TX",
	"zip": "77802",
	"rating": "3.0",
	"reviews": "1",
	"price": 0,
	"type": "Food Trucks",
	"lat": "30.6438033925059",
	"lon": "-96.3513816549488"
}, {
	"name": "Smetana Grocery",
	"streetAddress": "7700 W State Hwy 21",
	"city": "Bryan",
	"state": "TX",
	"zip": "77807",
	"rating": "3.0",
	"reviews": "1",
	"price": 0,
	"type": "Grocery",
	"lat": "30.653149330995",
	"lon": "-96.4551188075411"
}, {
	"name": "Super Canasta",
	"streetAddress": "2000 Highway 21 East",
	"city": "Bryan",
	"state": "TX",
	"zip": "77803",
	"rating": "3.0",
	"reviews": "1",
	"price": 0,
	"type": "Grocery",
	"lat": "30.6901342011481",
	"lon": "-96.3694397848766"
}, {
	"name": "My Cupcakery",
	"streetAddress": "1003 South Texas Ave",
	"city": "Bryan",
	"state": "TX",
	"zip": "77803",
	"rating": "3.0",
	"reviews": "1",
	"price": 2,
	"type": "Cupcakes",
	"lat": "30.6628017554039",
	"lon": "-96.3711918635322"
}, {
	"name": "Valero",
	"streetAddress": "4609 E 29th St",
	"city": "Bryan",
	"state": "TX",
	"zip": "77802",
	"rating": "3.0",
	"reviews": "1",
	"price": 0,
	"type": "Gas & Service Stations, Convenience Stores",
	"lat": "30.640606231551",
	"lon": "-96.3281869672533"
}, {
	"name": "Easy Shop",
	"streetAddress": "3510 S College Ave",
	"city": "Bryan",
	"state": "TX",
	"zip": "77801",
	"rating": "3.0",
	"reviews": "1",
	"price": 0,
	"type": "Convenience Stores",
	"lat": "30.6353351969294",
	"lon": "-96.3550989593279"
}, {
	"name": "Exxon Express Mart",
	"streetAddress": "505 N Harvey Mitchell Pkwy",
	"city": "Bryan",
	"state": "TX",
	"zip": "77807",
	"rating": "3.0",
	"reviews": "1",
	"price": 0,
	"type": "Convenience Stores",
	"lat": "30.6330232834912",
	"lon": "-96.3780185763443"
}, {
	"name": "Sunrise Food MartFood",
	"streetAddress": "5103 Leonard Rd",
	"city": "Bryan",
	"state": "TX",
	"zip": "77807",
	"rating": "3.0",
	"reviews": "1",
	"price": 1,
	"type": "Convenience Stores",
	"lat": "30.6312812055604",
	"lon": "-96.4091980068177"
}, {
	"name": "Easy Shop No 3",
	"streetAddress": "1910 Labrisa Dr",
	"city": "Bryan",
	"state": "TX",
	"zip": "77807",
	"rating": "3.0",
	"reviews": "1",
	"price": 0,
	"type": "Convenience Stores",
	"lat": "30.6254232363943",
	"lon": "-96.3777473568201"
}, {
	"name": "H-E-B Start Fresh Tour Truck",
	"streetAddress": "725 E Villa Maria Rd",
	"city": "Bryan",
	"state": "TX",
	"zip": "77802",
	"rating": "3.0",
	"reviews": "1",
	"price": 0,
	"type": "Food Trucks",
	"lat": "30.6438033925059",
	"lon": "-96.3513816549488"
}, {
	"name": "Smetana Grocery",
	"streetAddress": "7700 W State Hwy 21",
	"city": "Bryan",
	"state": "TX",
	"zip": "77807",
	"rating": "3.0",
	"reviews": "1",
	"price": 0,
	"type": "Grocery",
	"lat": "30.653149330995",
	"lon": "-96.4551188075411"
}, {
	"name": "El Ahorro Supermarket",
	"streetAddress": "2001 East Hwy 21",
	"city": "Bryan",
	"state": "TX",
	"zip": "77803",
	"rating": "3.0",
	"reviews": "1",
	"price": 1,
	"type": "Grocery",
	"lat": "30.6899758507636",
	"lon": "-96.3693530006237"
}, {
	"name": "Super Canasta",
	"streetAddress": "2000 Highway 21 East",
	"city": "Bryan",
	"state": "TX",
	"zip": "77803",
	"rating": "3.0",
	"reviews": "1",
	"price": 0,
	"type": "Grocery",
	"lat": "30.6901342011481",
	"lon": "-96.3694397848766"
}, {
	"name": "Hillcrest Grocery",
	"streetAddress": "2001 S College Main",
	"city": "Bryan",
	"state": "TX",
	"zip": "77801",
	"rating": "3.0",
	"reviews": "1",
	"price": 0,
	"type": "Grocery",
	"lat": "30.88972",
	"lon": "-96.29445"
}, {
	"name": "Appletree Markets",
	"streetAddress": "2000 Highway 21 E",
	"city": "Bryan",
	"state": "TX",
	"zip": "77803",
	"rating": "3.0",
	"reviews": "1",
	"price": 0,
	"type": "Grocery",
	"lat": "30.6901342011481",
	"lon": "-96.3694397848766"
}, {
	"name": "Finfeather Grocery",
	"streetAddress": "2208 Finfeather Rd",
	"city": "Bryan",
	"state": "TX",
	"zip": "77801",
	"rating": "3.0",
	"reviews": "2",
	"price": 0,
	"type": "Grocery",
	"lat": "30.645078708608",
	"lon": "-96.3760507575523"
}, {
	"name": "Amigos Food MartFood",
	"streetAddress": "1138 Finfeather Rd",
	"city": "Bryan",
	"state": "TX",
	"zip": "77803",
	"rating": "3.0",
	"reviews": "1",
	"price": 0,
	"type": "Convenience Stores",
	"lat": "30.6632381931863",
	"lon": "-96.3747285886559"
}, {
	"name": "Walgreens",
	"streetAddress": "610 E Villa Maria Rd",
	"city": "Bryan",
	"state": "TX",
	"zip": "77802",
	"rating": "2.0",
	"reviews": "1",
	"price": 1,
	"type": "Cosmetics & Beauty Supply, Drugstores, Convenience Stores",
	"lat": "30.6442546646949",
	"lon": "-96.3536340009034"
}, {
	"name": "Walgreens",
	"streetAddress": "2350 Boonville Rd",
	"city": "Bryan",
	"state": "TX",
	"zip": "77808",
	"rating": "1.5",
	"reviews": "4",
	"price": 1,
	"type": "Cosmetics & Beauty Supply, Drugstores, Convenience Stores",
	"lat": "30.704715",
	"lon": "-96.335583"
}, {
	"name": "Liquor Sales",
	"streetAddress": "1901 Texas Ave",
	"city": "Bryan",
	"state": "TX",
	"zip": "77802",
	"rating": "2.0",
	"reviews": "1",
	"price": 2,
	"type": "Beer, Wine & Spirits",
	"lat": "30.6147000660803",
	"lon": "-96.3157434865183"
}, {
	"name": "H-E-B",
	"streetAddress": "1609 N Texas Ave",
	"city": "Bryan",
	"state": "TX",
	"zip": "77803",
	"rating": "3.5",
	"reviews": "2",
	"price": 0,
	"type": "Grocery",
	"lat": "30.689685491473",
	"lon": "-96.3717109146805"
}, {
	"name": "Walgreens",
	"streetAddress": "3312 E 29Th St",
	"city": "Bryan",
	"state": "TX",
	"zip": "77802",
	"rating": "2.0",
	"reviews": "2",
	"price": 2,
	"type": "Cosmetics & Beauty Supply, Drugstores, Convenience Stores",
	"lat": "30.6549650062514",
	"lon": "-96.3375617201918"
}, {
	"name": "Bryan Drive-In",
	"streetAddress": "1501 Groesbeck St",
	"city": "Bryan",
	"state": "TX",
	"zip": "77803",
	"rating": "2.0",
	"reviews": "1",
	"price": 0,
	"type": "Convenience Stores",
	"lat": "30.658681079779",
	"lon": "-96.3784797860817"
}, {
	"name": "Oh My Soul Cookies & Cakes",
	"streetAddress": "null",
	"city": "Bryan",
	"state": "TX",
	"zip": "77802",
	"rating": "null",
	"reviews": "null",
	"price": 0,
	"type": "Desserts",
	"lat": "null",
	"lon": "null"
}, {
	"name": "Libations",
	"streetAddress": "725 E Villa Maria Rd",
	"city": "Bryan",
	"state": "TX",
	"zip": "77802",
	"rating": "2.0",
	"reviews": "1",
	"price": 0,
	"type": "Tobacco Shops, Beer, Wine & Spirits",
	"lat": "30.6438033925059",
	"lon": "-96.3513816549488"
}, {
	"name": "H-E-B",
	"streetAddress": "725 E Villa Maria Ave",
	"city": "Bryan",
	"state": "TX",
	"zip": "77802",
	"rating": "null",
	"reviews": "null",
	"price": 0,
	"type": "Drugstores, Grocery",
	"lat": "30.6438033925059",
	"lon": "-96.3513816549488"
}, {
	"name": "Oaks Food MartFood",
	"streetAddress": "3900 E 29th St",
	"city": "Bryan",
	"state": "TX",
	"zip": "77802",
	"rating": "1.0",
	"reviews": "1",
	"price": 0,
	"type": "Grocery, Convenience Stores",
	"lat": "30.6472716881598",
	"lon": "-96.3343737731968"
}, {
	"name": "Aggee Kwik Stop",
	"streetAddress": "4401 Old College Main",
	"city": "Bryan",
	"state": "TX",
	"zip": "77801",
	"rating": "1.0",
	"reviews": "1",
	"price": 0,
	"type": "Convenience Stores",
	"lat": "30.6233235635743",
	"lon": "-96.3506358203659"
}, {
	"name": "Heb Grocery Store # 3",
	"streetAddress": "725 E Villa Maria Rd",
	"city": "Bryan",
	"state": "TX",
	"zip": "77802",
	"rating": "null",
	"reviews": "null",
	"price": 2,
	"type": "Grocery",
	"lat": "30.6438033925059",
	"lon": "-96.3513816549488"
}, {
	"name": "Grace Bakery",
	"streetAddress": "2010 Positano Loop",
	"city": "Bryan",
	"state": "TX",
	"zip": "77808",
	"rating": "null",
	"reviews": "null",
	"price": 0,
	"type": "Bakeries",
	"lat": "30.704715",
	"lon": "-96.335583"
}, {
	"name": "Zip’n Food Store 118Food",
	"streetAddress": "200 N Texas Ave",
	"city": "Bryan",
	"state": "TX",
	"zip": "77803",
	"rating": "null",
	"reviews": "null",
	"price": 1,
	"type": "Grocery, Convenience Stores",
	"lat": "30.6746384341426",
	"lon": "-96.3702391655491"
}, {
	"name": "Discount Drink & Tobacco",
	"streetAddress": "3819 E 29th St",
	"city": "Bryan",
	"state": "TX",
	"zip": "77802",
	"rating": "1.0",
	"reviews": "2",
	"price": 0,
	"type": "Beer, Wine & Spirits",
	"lat": "30.6482119998422",
	"lon": "-96.334013117132"
}, {
	"name": "Sweet Bakery",
	"streetAddress": "2651 Boonville Rd",
	"city": "Bryan",
	"state": "TX",
	"zip": "77808",
	"rating": "null",
	"reviews": "null",
	"price": 0,
	"type": "Bakeries",
	"lat": "30.6710133393598",
	"lon": "-96.3194202798124"
}, {
	"name": "JB Mobile BBQ and Catering",
	"streetAddress": "null",
	"city": "Bryan",
	"state": "TX",
	"rating": "null",
	"reviews": "null",
	"price": 0,
	"type": "Food Trucks",
	"lat": "null",
	"lon": "null"
}, {
	"name": "Southern Comfort Road Trip",
	"streetAddress": "null",
	"city": "Bryan",
	"state": "TX",
	"zip": "77802",
	"rating": "null",
	"reviews": "null",
	"price": 0,
	"type": "Food Trucks",
	"lat": "null",
	"lon": "null"
}, {
	"name": "Ready 2 Go",
	"streetAddress": "1600 S College Ave",
	"city": "Bryan",
	"state": "TX",
	"zip": "77801",
	"rating": "1.0",
	"reviews": "1",
	"price": 0,
	"type": "Convenience Stores",
	"lat": "30.6544695688905",
	"lon": "-96.3697171753792"
}, {
	"name": "Diamond Shamrock",
	"streetAddress": "4609 E 29th St",
	"city": "Bryan",
	"state": "TX",
	"zip": "77802",
	"rating": "null",
	"reviews": "null",
	"price": 1,
	"type": "Gas & Service Stations, Convenience Stores",
	"lat": "30.640606231551",
	"lon": "-96.3281869672533"
}, {
	"name": "The Cork",
	"streetAddress": "4201 Wellborn Rd",
	"city": "Bryan",
	"state": "TX",
	"zip": "77801",
	"rating": "1.0",
	"reviews": "1",
	"price": 0,
	"type": "Beer, Wine & Spirits",
	"lat": "30.6217884354596",
	"lon": "-96.3533051697468"
}, {
	"name": "Dabbs Marketing",
	"streetAddress": "902 N Harvey Mitchell Pkwy",
	"city": "Bryan",
	"state": "TX",
	"zip": "77803",
	"rating": "3.0",
	"reviews": "2",
	"price": 0,
	"type": "Convenience Stores",
	"lat": "30.6446238280107",
	"lon": "-96.3884265503896"
}, {
	"name": "Aggie Kwik Stop",
	"streetAddress": "4401 Old College Rd",
	"city": "Bryan",
	"state": "TX",
	"zip": "77801",
	"rating": "null",
	"reviews": "null",
	"price": 0,
	"type": "Convenience Stores",
	"lat": "30.6265712044935",
	"lon": "-96.3551028981596"
}, {
	"name": "Rattlers Country Stores",
	"streetAddress": "2411 E 29th St",
	"city": "Bryan",
	"state": "TX",
	"zip": "77802",
	"rating": "null",
	"reviews": "null",
	"price": 0,
	"type": "Convenience Stores",
	"lat": "30.6579005842944",
	"lon": "-96.3487718513409"
}, {
	"name": "Sodolak Grocery",
	"streetAddress": "311 San Jacinto Ln",
	"city": "Bryan",
	"state": "TX",
	"zip": "77803",
	"rating": "null",
	"reviews": "null",
	"price": 0,
	"type": "Grocery",
	"lat": "30.6782154310639",
	"lon": "-96.3877392005545"
}, {
	"name": "COCOA MODA CHOCOLATE",
	"streetAddress": "505 S Main St",
	"city": "Bryan",
	"state": "TX",
	"zip": "77803",
	"rating": "null",
	"reviews": "null",
	"price": 0,
	"type": "Chocolatiers & Shops",
	"lat": "30.6698815764549",
	"lon": "-96.3735916132018"
}, {
	"name": "4 Corners Market",
	"streetAddress": "3239 Wilkes St",
	"city": "Bryan",
	"state": "TX",
	"zip": "77803",
	"rating": "5.0",
	"reviews": "1",
	"price": 0,
	"type": "Convenience Stores",
	"lat": "30.7093936172768",
	"lon": "-96.3751223705926"
}, {
	"name": "Briarcrest Shell Food MartFood",
	"streetAddress": "3151 Briarcrest Dr",
	"city": "Bryan",
	"state": "TX",
	"zip": "77802",
	"rating": "null",
	"reviews": "null",
	"price": 0,
	"type": "Convenience Stores",
	"lat": "30.6667433781221",
	"lon": "-96.3241124384558"
}, {
	"name": "Stop N Save",
	"streetAddress": "401 W William Joel Bryan Pkwy",
	"city": "Bryan",
	"state": "TX",
	"zip": "77803",
	"rating": "null",
	"reviews": "null",
	"price": 2,
	"type": "Convenience Stores",
	"lat": "30.681235",
	"lon": "-96.376593"
}, {
	"name": "Cake Me Away Bakery",
	"streetAddress": "1106 Faith Cir",
	"city": "Bryan",
	"state": "TX",
	"zip": "77803",
	"rating": "null",
	"reviews": "null",
	"price": 2,
	"type": "Bakeries",
	"lat": "30.6648078560173",
	"lon": "-96.3833640796384"
}, {
	"name": "Villa Maria Donuts",
	"streetAddress": "808 E Villa Maria Rd",
	"city": "Bryan",
	"state": "TX",
	"zip": "77802",
	"rating": "null",
	"reviews": "null",
	"price": 0,
	"type": "Bakeries",
	"lat": "30.6462309446772",
	"lon": "-96.3505862327566"
}, {
	"name": "Nicky’s Food MartFood",
	"streetAddress": "601 W 28th St",
	"city": "Bryan",
	"state": "TX",
	"zip": "77803",
	"rating": "null",
	"reviews": "null",
	"price": 0,
	"type": "Grocery, Convenience Stores",
	"lat": "30.6719972409235",
	"lon": "-96.3788375906052"
}, {
	"name": "Starbucks",
	"streetAddress": "950 N Ear Rudder Fwy",
	"city": "Bryan",
	"state": "TX",
	"zip": "77808",
	"rating": "null",
	"reviews": "null",
	"price": 0,
	"type": "Coffee & Tea",
	"lat": "30.704715",
	"lon": "-96.335583"
}, {
	"name": "Brazos Valley Farmers’ Market",
	"streetAddress": "500 N Main St",
	"city": "Bryan",
	"state": "TX",
	"zip": "77803",
	"rating": "null",
	"reviews": "null",
	"price": 0,
	"type": "Farmers Market",
	"lat": "30.6775969723633",
	"lon": "-96.3731467877986"
}, {
	"name": "Cameron Ranch Food MartFood",
	"streetAddress": "1414 Fm 2223",
	"city": "Bryan",
	"state": "TX",
	"zip": "77808",
	"rating": "null",
	"reviews": "null",
	"price": 0,
	"type": "Convenience Stores, Caterers",
	"lat": "30.7203412710223",
	"lon": "-96.3640107189839"
}, {
	"name": "El Pollo Mero",
	"streetAddress": "College Main St",
	"city": "Bryan",
	"state": "TX",
	"zip": "77801",
	"rating": "null",
	"reviews": "null",
	"price": 0,
	"type": "Food Trucks",
	"lat": "30.88972",
	"lon": "-96.29445"
}, {
	"name": "Rico’s Shaved Ice and Fruit Cups",
	"streetAddress": "E 29th St",
	"city": "Bryan",
	"state": "TX",
	"zip": "77802",
	"rating": "4.0",
	"reviews": "1",
	"price": 0,
	"type": "Shaved Ice",
	"lat": "30.660096",
	"lon": "-96.332343"
}, {
	"name": "Lakeside Grocery & Barbeque",
	"streetAddress": "10915 S State Highway 6",
	"city": "Bryan",
	"state": "TX",
	"zip": "77807",
	"rating": "null",
	"reviews": "null",
	"price": 0,
	"type": "Grocery",
	"lat": "30.7676928401812",
	"lon": "-96.4845463519238"
}, {
	"name": "Ruffino Meats & Food ServiceFood",
	"streetAddress": "2130 E Wm J Bryan Pkwy",
	"city": "Bryan",
	"state": "TX",
	"zip": "77802",
	"rating": "null",
	"reviews": "null",
	"price": 2,
	"type": "Meat Shops",
	"lat": "30.6724216193023",
	"lon": "-96.3417237062915"
}, {
	"name": "Faulkner Farms",
	"streetAddress": "502 Brookside Dr E",
	"city": "Bryan",
	"state": "TX",
	"zip": "77802",
	"rating": "null",
	"reviews": "null",
	"price": 0,
	"type": "Meat Shops",
	"lat": "30.6339965544335",
	"lon": "-96.3441795480371"
}, {
	"name": "Kristen Distributing Co",
	"streetAddress": "8301 S State Hwy 6",
	"city": "Bryan",
	"state": "TX",
	"zip": "77807",
	"rating": "null",
	"reviews": "null",
	"price": 0,
	"type": "Beer, Wine & Spirits",
	"lat": "30.7673065156958",
	"lon": "-96.4842197953019"
}, {
	"name": "Prince Food MartFood",
	"streetAddress": "103 S Coulter Dr",
	"city": "Bryan",
	"state": "TX",
	"zip": "77803",
	"rating": "null",
	"reviews": "null",
	"price": 0,
	"type": "Grocery, Convenience Stores",
	"lat": "30.6678443795112",
	"lon": "-96.3592307356926"
}, {
	"name": "Brazos Wholesale",
	"streetAddress": "907 N Earl Rudder Freeway",
	"city": "Bryan",
	"state": "TX",
	"zip": "77802",
	"rating": "null",
	"reviews": "null",
	"price": 0,
	"type": "Grocery, Tobacco Shops, Candy Stores",
	"lat": "30.6729215197894",
	"lon": "-96.3405729357888"
}, {
	"name": "Garcia Joyeria Y Novedades",
	"streetAddress": "1305 W Wm J Bryan Pkwy",
	"city": "Bryan",
	"state": "TX",
	"zip": "77803",
	"rating": "null",
	"reviews": "null",
	"price": 0,
	"type": "Jewelry, Ice Cream & Frozen Yogurt",
	"lat": "30.675746413029",
	"lon": "-96.3865770513773"
}, {
	"name": "Rattlers Country Store",
	"streetAddress": "891 N Earl Rudder Fwy",
	"city": "Bryan",
	"state": "TX",
	"zip": "77802",
	"rating": "null",
	"reviews": "null",
	"price": 0,
	"type": "Convenience Stores",
	"lat": "30.6714848385371",
	"lon": "-96.3397603224647"
}, {
	"name": "SDD Enterprises",
	"streetAddress": "1101 E Villa Maria Rd",
	"city": "Bryan",
	"state": "TX",
	"zip": "77802",
	"rating": "null",
	"reviews": "null",
	"price": 1,
	"type": "Convenience Stores",
	"lat": "30.6482762092942",
	"lon": "-96.347794828331"
}, {
	"name": "Hula Girl Truck",
	"streetAddress": "null",
	"city": "Bryan",
	"state": "TX",
	"rating": "null",
	"reviews": "null",
	"price": 0,
	"type": "Food Trucks",
	"lat": "null",
	"lon": "null"
}, {
	"name": "Tigerland Shell",
	"streetAddress": "890 N Harvey Mitchell Pkwy",
	"city": "Bryan",
	"state": "TX",
	"zip": "77807",
	"rating": "null",
	"reviews": "null",
	"price": 0,
	"type": "Convenience Stores",
	"lat": "30.6440048390081",
	"lon": "-96.3875200997025"
}, {
	"name": "Ruffino Meats & Food ServiceFood",
	"streetAddress": "2130 Williams Way",
	"city": "Bryan",
	"state": "TX",
	"zip": "77808",
	"rating": "null",
	"reviews": "null",
	"price": 0,
	"type": "Meat Shops",
	"lat": "30.6780848339857",
	"lon": "-96.3351163370863"
}, {
	"name": "Shanco Group",
	"streetAddress": "2100 S College Ave",
	"city": "Bryan",
	"state": "TX",
	"zip": "77801",
	"rating": "null",
	"reviews": "null",
	"price": 0,
	"type": "Convenience Stores",
	"lat": "30.6493162541759",
	"lon": "-96.3660264841811"
}, {
	"name": "Quick Mart",
	"streetAddress": "2901 E Villa Maria Rd",
	"city": "Bryan",
	"state": "TX",
	"zip": "77803",
	"rating": "null",
	"reviews": "null",
	"price": 0,
	"type": "Grocery, Convenience Stores",
	"lat": "30.6720638690825",
	"lon": "-96.3491559122779"
}, {
	"name": "Super Trac 102",
	"streetAddress": "890 N Harvey Mitchell Pkwy",
	"city": "Bryan",
	"state": "TX",
	"zip": "77807",
	"rating": "null",
	"reviews": "null",
	"price": 0,
	"type": "Grocery",
	"lat": "30.6440048390081",
	"lon": "-96.3875200997025"
}, {
	"name": "Gendron Homegrown",
	"streetAddress": "6150 Zweifel Rd",
	"city": "Bryan",
	"state": "TX",
	"zip": "77808",
	"rating": "null",
	"reviews": "null",
	"price": 0,
	"type": "Farmers Market",
	"lat": "30.8257102796619",
	"lon": "-96.3477346627896"
}, {
	"name": "H-E-B Pantry FoodsFoods",
	"streetAddress": "2031 S Texas Ave",
	"city": "Bryan",
	"state": "TX",
	"zip": "77802",
	"rating": "null",
	"reviews": "null",
	"price": 0,
	"type": "Grocery",
	"lat": "30.6496864118471",
	"lon": "-96.3594346664583"
}, {
	"name": "Texan Market",
	"streetAddress": "457 N Harvey Mitchell Pkwy",
	"city": "Bryan",
	"state": "TX",
	"zip": "77807",
	"rating": "null",
	"reviews": "null",
	"price": 0,
	"type": "Convenience Stores",
	"lat": "30.6304557605697",
	"lon": "-96.3775512996175"
}, {
	"name": "Rural Health Clinics R J Cantu",
	"streetAddress": "1530 E Wm J Bryan Pkwy",
	"city": "Bryan",
	"state": "TX",
	"zip": "77803",
	"rating": "null",
	"reviews": "null",
	"price": 0,
	"type": "Specialty Food",
	"lat": "30.6733114781131",
	"lon": "-96.3554329760512"
}, {
	"name": "King Mart",
	"streetAddress": "800 E Dr Mlk St",
	"city": "Bryan",
	"state": "TX",
	"zip": "77801",
	"rating": "null",
	"reviews": "null",
	"price": 0,
	"type": "Convenience Stores",
	"lat": "30.88972",
	"lon": "-96.29445"
}, {
	"name": "Dabbs Oil",
	"streetAddress": "401 N Texas Ave",
	"city": "Bryan",
	"state": "TX",
	"zip": "77803",
	"rating": "null",
	"reviews": "null",
	"price": 0,
	"type": "Convenience Stores",
	"lat": "30.6763911056362",
	"lon": "-96.3693563498993"
}, {
	"name": "Hilliard Jack Distributing",
	"streetAddress": "1000 Independence Ave",
	"city": "Bryan",
	"state": "TX",
	"zip": "77803",
	"rating": "null",
	"reviews": "null",
	"price": 0,
	"type": "Beer, Wine & Spirits",
	"lat": "30.6619778795416",
	"lon": "-96.4066735135307"
}, {
	"name": "Time Mart",
	"streetAddress": "2626 Finfeather Rd",
	"city": "Bryan",
	"state": "TX",
	"zip": "77801",
	"rating": "null",
	"reviews": "null",
	"price": 0,
	"type": "Grocery, Convenience Stores",
	"lat": "30.6404627178966",
	"lon": "-96.3727423269152"
}, {
	"name": "Ruffino Meats & Food Service Wholesale DivisionFood",
	"streetAddress": "2130 E Wm J Bryan Pkwy",
	"city": "Bryan",
	"state": "TX",
	"zip": "77802",
	"rating": "null",
	"reviews": "null",
	"price": 0,
	"type": "Meat Shops",
	"lat": "30.6724216193023",
	"lon": "-96.3417237062915"
}, {
	"name": "Fishman",
	"streetAddress": "705 W Villa Maria Rd",
	"city": "Bryan",
	"state": "TX",
	"zip": "77801",
	"rating": "null",
	"reviews": "null",
	"price": 0,
	"type": "Seafood Markets",
	"lat": "30.6341329271051",
	"lon": "-96.3661742797927"
}, {
	"name": "Joe’s Food MarketFood",
	"streetAddress": "2009 Highway 21 W",
	"city": "Bryan",
	"state": "TX",
	"zip": "77803",
	"rating": "null",
	"reviews": "null",
	"price": 0,
	"type": "Grocery, Convenience Stores",
	"lat": "30.6737386319437",
	"lon": "-96.396094553354"
}, {
	"name": "Independent Growers Market-Local Harvest",
	"streetAddress": "1104 W Wm J Bryan Pkwy",
	"city": "Bryan",
	"state": "TX",
	"zip": "77803",
	"rating": "null",
	"reviews": "null",
	"price": 0,
	"type": "Farmers Market",
	"lat": "30.6762462797125",
	"lon": "-96.3838455653643"
}, {
	"name": "Frito-Lay",
	"streetAddress": "6941 E State Highway 21",
	"city": "Bryan",
	"state": "TX",
	"zip": "77808",
	"rating": "null",
	"reviews": "null",
	"price": 0,
	"type": "Specialty Food",
	"lat": "30.7277408382789",
	"lon": "-96.3312801365747"
}, {
	"name": "Good Times Liquor",
	"streetAddress": "708 San Jacinto Ln",
	"city": "Bryan",
	"state": "TX",
	"zip": "77803",
	"rating": "null",
	"reviews": "null",
	"price": 0,
	"type": "Beer, Wine & Spirits",
	"lat": "30.6824242115015",
	"lon": "-96.3829303583318"
}, {
	"name": "Max Texaco Food MartFood",
	"streetAddress": "3300 S Texas Ave",
	"city": "Bryan",
	"state": "TX",
	"zip": "77802",
	"rating": "null",
	"reviews": "null",
	"price": 0,
	"type": "Convenience Stores",
	"lat": "30.6404990901349",
	"lon": "-96.3503266516886"
}, {
	"name": "Midway Grocery",
	"streetAddress": "Steele Store",
	"city": "Bryan",
	"state": "TX",
	"zip": "77801",
	"rating": "null",
	"reviews": "null",
	"price": 0,
	"type": "Grocery",
	"lat": "30.88972",
	"lon": "-96.29445"
}, {
	"name": "Dabbs Oil",
	"streetAddress": "209 W Carson St",
	"city": "Bryan",
	"state": "TX",
	"zip": "77801",
	"rating": "null",
	"reviews": "null",
	"price": 0,
	"type": "Gas & Service Stations, Convenience Stores",
	"lat": "30.6484962914456",
	"lon": "-96.3667594621882"
}, {
	"name": "Town & Country Food MartFood",
	"streetAddress": "1401 N Texas Ave",
	"city": "Bryan",
	"state": "TX",
	"zip": "77803",
	"rating": "null",
	"reviews": "null",
	"price": 0,
	"type": "Grocery, Convenience Stores",
	"lat": "30.687390406004",
	"lon": "-96.3700571458625"
}, {
	"name": "Dolly Madison Cakes",
	"streetAddress": "2600 Finfeather Rd",
	"city": "Bryan",
	"state": "TX",
	"zip": "77801",
	"rating": "null",
	"reviews": "null",
	"price": 0,
	"type": "Bakeries",
	"lat": "30.6406180579124",
	"lon": "-96.3735166385792"
}, {
	"name": "Sammy Food MartFood",
	"streetAddress": "3500 E 29th St",
	"city": "Bryan",
	"state": "TX",
	"zip": "77802",
	"rating": "null",
	"reviews": "null",
	"price": 0,
	"type": "Convenience Stores",
	"lat": "30.6523509724912",
	"lon": "-96.33604261706"
}, {
	"name": "Jj’s Wholesale Liquor & Beer",
	"streetAddress": "1219 N Texas Ave",
	"city": "Bryan",
	"state": "TX",
	"zip": "77803",
	"rating": "null",
	"reviews": "null",
	"price": 0,
	"type": "Beer, Wine & Spirits",
	"lat": "30.6598871941623",
	"lon": "-96.3702223112972"
}, {
	"name": "E-Z Corner Mart",
	"streetAddress": "1296 N Harvey Mitchell Pkwy",
	"city": "Bryan",
	"state": "TX",
	"zip": "77803",
	"rating": "null",
	"reviews": "null",
	"price": 0,
	"type": "Convenience Stores",
	"lat": "30.6531142561371",
	"lon": "-96.3993561929428"
}, {
	"name": "Butcher Block Ed’s",
	"streetAddress": "600 N Texas Ave",
	"city": "Bryan",
	"state": "TX",
	"zip": "77803",
	"rating": "null",
	"reviews": "null",
	"price": 0,
	"type": "Meat Shops",
	"lat": "30.6783224571484",
	"lon": "-96.3697686768364"
}, {
	"name": "E-Z Mart",
	"streetAddress": "3330 E 29th St",
	"city": "Bryan",
	"state": "TX",
	"zip": "77802",
	"rating": "null",
	"reviews": "null",
	"price": 0,
	"type": "Grocery, Convenience Stores",
	"lat": "30.655640135625",
	"lon": "-96.3377359317323"
},